{"type":"FeatureCollection","name":"7_fuentes_de_agua_2025","source_file":"7. Fuentes de Agua 2025.kmz","layer_kind":"water_sources","converted_at":"2026-05-15T17:37:01","features":[{"type":"Feature","properties":{"nombre":"Tranque","layer_kind":"water_sources","tipo":"Fuente de agua","estado":"Disponible"},"geometry":{"type":"Point","coordinates":[-72.83460756456537,-38.45852208643594]}},{"type":"Feature","properties":{"nombre":"Guanaco 2 (Porotal)","layer_kind":"water_sources","tipo":"Fuente de agua","estado":"Disponible"},"geometry":{"type":"Point","coordinates":[-72.64819458192919,-36.25186028634808]}},{"type":"Feature","properties":{"nombre":"Guineral","layer_kind":"water_sources","tipo":"Fuente de agua","estado":"Disponible"},"geometry":{"type":"Point","coordinates":[-72.88682466167468,-36.57595942773219]}},{"type":"Feature","properties":{"nombre":"Lohue","layer_kind":"water_sources","tipo":"Fuente de agua","estado":"Disponible"},"geometry":{"type":"Point","coordinates":[-72.43955647896279,-36.29627085905797]}},{"type":"Feature","properties":{"nombre":"Juan Fernandez","layer_kind":"water_sources","tipo":"Fuente de agua","estado":"Disponible"},"geometry":{"type":"Point","coordinates":[-72.7968593077351,-36.43608808873043]}},{"type":"Feature","properties":{"nombre":"Ranchillo","layer_kind":"water_sources","tipo":"Fuente de agua","estado":"Disponible"},"geometry":{"type":"Point","coordinates":[-71.42860554084308,-36.07195915007226]}},{"type":"Feature","properties":{"nombre":"San Alberto","layer_kind":"water_sources","tipo":"Fuente de agua","estado":"Disponible"},"geometry":{"type":"Point","coordinates":[-71.65053062888015,-36.29876493990476]}},{"type":"Feature","properties":{"nombre":"El Durazno","layer_kind":"water_sources","tipo":"Fuente de agua","estado":"Disponible"},"geometry":{"type":"Point","coordinates":[-71.55912965320516,-36.40363962724882]}},{"type":"Feature","properties":{"nombre":"Trehualemu","layer_kind":"water_sources","tipo":"Fuente de agua","estado":"Disponible"},"geometry":{"type":"Point","coordinates":[-72.73829468755372,-35.97908351182179]}},{"type":"Feature","properties":{"nombre":"Lloimavida","layer_kind":"water_sources","tipo":"Fuente de agua","estado":"Disponible"},"geometry":{"type":"Point","coordinates":[-71.62700561976241,-36.29627271578461]}},{"type":"Feature","properties":{"nombre":"Huamaqui","layer_kind":"water_sources","tipo":"Fuente de agua","estado":"Disponible"},"geometry":{"type":"Point","coordinates":[-73.01489627828475,-38.47556873496879]}},{"type":"Feature","properties":{"nombre":"Humaqui 2","layer_kind":"water_sources","tipo":"Fuente de agua","estado":"Disponible"},"geometry":{"type":"Point","coordinates":[-73.02866758158898,-38.47082313051567]}},{"type":"Feature","properties":{"nombre":"Ribera de Huamaqui N° 3","layer_kind":"water_sources","tipo":"Fuente de agua","estado":"Disponible"},"geometry":{"type":"Point","coordinates":[-73.03627158619533,-38.48179930306863]}},{"type":"Feature","properties":{"nombre":"Ribera Huamaqui N°4","layer_kind":"water_sources","tipo":"Fuente de agua","estado":"Disponible"},"geometry":{"type":"Point","coordinates":[-73.03025605962426,-38.46663605825309]}},{"type":"Feature","properties":{"nombre":"San Antonio Huamaqui","layer_kind":"water_sources","tipo":"Fuente de agua","estado":"Disponible"},"geometry":{"type":"Point","coordinates":[-73.08141044323133,-38.46120902937165]}},{"type":"Feature","properties":{"nombre":"Altimidoro1","layer_kind":"water_sources","tipo":"Fuente de agua","estado":"Disponible"},"geometry":{"type":"Point","coordinates":[-73.06609776412338,-38.42496051493802]}},{"type":"Feature","properties":{"nombre":"Zaragosa 1 - 2","layer_kind":"water_sources","tipo":"Fuente de agua","estado":"Disponible"},"geometry":{"type":"Point","coordinates":[-73.02166666666665,-38.45638888888889]}},{"type":"Feature","properties":{"nombre":"Sn Antonio Huamaqui Norte","layer_kind":"water_sources","tipo":"Fuente de agua","estado":"Disponible"},"geometry":{"type":"Point","coordinates":[-73.055,-38.45277777777778]}},{"type":"Feature","properties":{"nombre":"Parc 15 Colonia Lautaro","layer_kind":"water_sources","tipo":"Fuente de agua","estado":"Disponible"},"geometry":{"type":"Point","coordinates":[-72.66444451266736,-38.57666664504428]}},{"type":"Feature","properties":{"nombre":"Santa Adela","layer_kind":"water_sources","tipo":"Fuente de agua","estado":"Disponible"},"geometry":{"type":"Point","coordinates":[-72.90131238936719,-39.1294733380173]}},{"type":"Feature","properties":{"nombre":"Etruria Seccion 22 Las Pulgas","layer_kind":"water_sources","tipo":"Fuente de agua","estado":"Disponible"},"geometry":{"type":"Point","coordinates":[-72.83233609539923,-39.19577563089798]}},{"type":"Feature","properties":{"nombre":"Los Corrales","layer_kind":"water_sources","tipo":"Fuente de agua","estado":"Disponible"},"geometry":{"type":"Point","coordinates":[-73.16447920098011,-38.62346570937577]}},{"type":"Feature","properties":{"nombre":"H Colo","layer_kind":"water_sources","tipo":"Fuente de agua","estado":"Disponible"},"geometry":{"type":"Point","coordinates":[-72.18080385653089,-38.19533431864668]}},{"type":"Feature","properties":{"nombre":"Santa Ema 2 (El Ariete)","layer_kind":"water_sources","tipo":"Fuente de agua","estado":"Disponible"},"geometry":{"type":"Point","coordinates":[-72.58638023658706,-38.31716451984241]}},{"type":"Feature","properties":{"nombre":"San Andres","layer_kind":"water_sources","tipo":"Fuente de agua","estado":"Disponible"},"geometry":{"type":"Point","coordinates":[-72.04944467432998,-38.03944456359663]}},{"type":"Feature","properties":{"nombre":"Fuente de agua BS5","layer_kind":"water_sources","tipo":"Fuente de agua","estado":"Disponible"},"geometry":{"type":"Point","coordinates":[-72.92916001179769,-39.08830082658912]}},{"type":"Feature","properties":{"nombre":"Santa Flora","layer_kind":"water_sources","tipo":"Fuente de agua","estado":"Disponible"},"geometry":{"type":"Point","coordinates":[-72.1094443490249,-37.90944476660724]}},{"type":"Feature","properties":{"nombre":"1","FID":"0","N°":"1","Comuna":"Temuco","Provincia":"Cautín","Nombre_Pro":"Marcelo Monsalve","Contacto":"989036622","Coordenada":"-38 41 53","F7":"-72 40 17","UTM_X":"702514,094","UTM_Y":"5714084,059","Obtenido_E":"2024-2025","layer_kind":"water_sources","tipo":"Fuente de agua","estado":"Disponible"},"geometry":{"type":"Point","coordinates":[-72.67126338659413,-38.69870152893549]}},{"type":"Feature","properties":{"nombre":"2","FID":"1","N°":"2","Comuna":"Temuco","Provincia":"Cautín","Nombre_Pro":"Hernan Millanao","Contacto":"997263907","Coordenada":"-38 38 22","F7":"-72 44 46","UTM_X":"696174,889","UTM_Y":"5720751,702","Obtenido_E":"2024-2025","layer_kind":"water_sources","tipo":"Fuente de agua","estado":"Disponible"},"geometry":{"type":"Point","coordinates":[-72.74598976166949,-38.64008891420646]}},{"type":"Feature","properties":{"nombre":"3","FID":"2","N°":"3","Comuna":"Lautaro","Provincia":"Cautín","Nombre_Pro":"Nicolas Nuñez","Contacto":"957402855","Coordenada":"-38 33 24","F7":"-72 31 36","UTM_X":"715525,081","UTM_Y":"5729446,829","Obtenido_E":"2024-2025","layer_kind":"water_sources","tipo":"Fuente de agua","estado":"Disponible"},"geometry":{"type":"Point","coordinates":[-72.5265336992656,-38.55730857468956]}},{"type":"Feature","properties":{"nombre":"4 (1)","FID":"3","N°":"4 (1)","Comuna":"Lautaro","Provincia":"Cautín","Nombre_Pro":"Jose Jara","Contacto":"979571279","Coordenada":"-38 32 59","F7":"-72 35 10","UTM_X":"710364,672","UTM_Y":"5730355,377","Obtenido_E":"2024-2025","layer_kind":"water_sources","tipo":"Fuente de agua","estado":"Disponible"},"geometry":{"type":"Point","coordinates":[-72.58598135312845,-38.55036402985417]}},{"type":"Feature","properties":{"nombre":"4 (2)","FID":"4","N°":"4 (2)","Comuna":"Lautaro","Provincia":"Cautín","Nombre_Pro":"Jose Jara","Contacto":"979571279","Coordenada":"-38 33 03","F7":"-72 35 07","UTM_X":"710434,064","UTM_Y":"5730230,149","Obtenido_E":"2024-2025","layer_kind":"water_sources","tipo":"Fuente de agua","estado":"Disponible"},"geometry":{"type":"Point","coordinates":[-72.58514797043252,-38.55147516817652]}},{"type":"Feature","properties":{"nombre":"4 (3)","FID":"5","N°":"4 (3)","Comuna":"Lautaro","Provincia":"Cautín","Nombre_Pro":"Jose Jara","Contacto":"979571279","Coordenada":"-38 33 10","F7":"-72 35 08","UTM_X":"710404,182","UTM_Y":"5730014,976","Obtenido_E":"2024-2025","layer_kind":"water_sources","tipo":"Fuente de agua","estado":"Disponible"},"geometry":{"type":"Point","coordinates":[-72.58542576308427,-38.55341966291023]}},{"type":"Feature","properties":{"nombre":"5","FID":"6","N°":"5","Comuna":"Lautaro","Provincia":"Cautín","Nombre_Pro":"Javier Sandoval","Contacto":"991689924","Coordenada":"-38 35 07","F7":"-72 33 03","UTM_X":"713334,235","UTM_Y":"5726327,744","Obtenido_E":"2024-2025","layer_kind":"water_sources","tipo":"Fuente de agua","estado":"Disponible"},"geometry":{"type":"Point","coordinates":[-72.55070159986131,-38.585920506202]}},{"type":"Feature","properties":{"nombre":"6","FID":"7","N°":"6","Comuna":"Lautaro","Provincia":"Cautín","Nombre_Pro":"Pablo Cordova","Contacto":"942083075","Coordenada":"-38 35 35","F7":"-72 34 21","UTM_X":"711423,883","UTM_Y":"5725514,628","Obtenido_E":"2024-2025","layer_kind":"water_sources","tipo":"Fuente de agua","estado":"Disponible"},"geometry":{"type":"Point","coordinates":[-72.57236941898866,-38.59369852839252]}},{"type":"Feature","properties":{"nombre":"7","FID":"8","N°":"7","Comuna":"Victoria","Provincia":"Malleco","Nombre_Pro":"Jose Galilea","Contacto":"992244129","Coordenada":"-38 14 39","F7":"-72 29 13","UTM_X":"719932,496","UTM_Y":"5764036,407","Obtenido_E":"2024-2025","layer_kind":"water_sources","tipo":"Fuente de agua","estado":"Disponible"},"geometry":{"type":"Point","coordinates":[-72.48681008135807,-38.2448000388426]}},{"type":"Feature","properties":{"nombre":"8","FID":"9","N°":"8","Comuna":"Traiguen","Provincia":"Malleco","Nombre_Pro":"Guillermo Raiman","Contacto":"974419682","Coordenada":"-38 08 01","F7":"-72 45 38","UTM_X":"696280,743","UTM_Y":"5776920,907","Obtenido_E":"2024-2025","layer_kind":"water_sources","tipo":"Fuente de agua","estado":"Disponible"},"geometry":{"type":"Point","coordinates":[-72.76043603779887,-38.13424187168084]}},{"type":"Feature","properties":{"nombre":"9 (1)","FID":"10","N°":"9 (1)","Comuna":"Los Sauces","Provincia":"Malleco","Nombre_Pro":"Italo Piccioli","Contacto":"998765547","Coordenada":"-38 04 16","F7":"-72 46 30","UTM_X":"695180,87","UTM_Y":"5783887,455","Obtenido_E":"2024-2025","layer_kind":"water_sources","tipo":"Fuente de agua","estado":"Disponible"},"geometry":{"type":"Point","coordinates":[-72.77488137911638,-38.07174021569725]}},{"type":"Feature","properties":{"nombre":"9 (2)","FID":"11","N°":"9 (2)","Comuna":"Los Sauces","Provincia":"Malleco","Nombre_Pro":"Italo Piccioli","Contacto":"998765547","Coordenada":"-38 04 47","F7":"-72 46 32","UTM_X":"695109,238","UTM_Y":"5782932,99","Obtenido_E":"2024-2025","layer_kind":"water_sources","tipo":"Fuente de agua","estado":"Disponible"},"geometry":{"type":"Point","coordinates":[-72.77543694491321,-38.08035155698838]}},{"type":"Feature","properties":{"nombre":"9 (3)","FID":"12","N°":"9 (3)","Comuna":"Los Sauces","Provincia":"Malleco","Nombre_Pro":"Italo Piccioli","Contacto":"998765547","Coordenada":"-38 05 19","F7":"-72 46 40","UTM_X":"694890,688","UTM_Y":"5781951,197","Obtenido_E":"2024-2025","layer_kind":"water_sources","tipo":"Fuente de agua","estado":"Disponible"},"geometry":{"type":"Point","coordinates":[-72.7776592751107,-38.08924068988308]}},{"type":"Feature","properties":{"nombre":"10","FID":"13","N°":"10","Comuna":"Cunco","Provincia":"Cautín","Nombre_Pro":"Eduardo Cortes","Contacto":"998471876","Coordenada":"-38 52 19","F7":"-72 18 07","UTM_X":"734078,971","UTM_Y":"5693901,065","Obtenido_E":"2024-2025","layer_kind":"water_sources","tipo":"Fuente de agua","estado":"Disponible"},"geometry":{"type":"Point","coordinates":[-72.30180158985407,-38.8719870737862]}},{"type":"Feature","properties":{"nombre":"11","FID":"14","N°":"11","Comuna":"Nueva Imperial","Provincia":"Cautín","Nombre_Pro":"Felipe Gallardo","Contacto":"961620672","Coordenada":"-38 40 45","F7":"-72 53 29","UTM_X":"683427,432","UTM_Y":"5716643,922","Obtenido_E":"2024-2025","layer_kind":"water_sources","tipo":"Fuente de agua","estado":"Disponible"},"geometry":{"type":"Point","coordinates":[-72.89127527641774,-38.67981240841564]}},{"type":"Feature","properties":{"nombre":"12","FID":"15","N°":"12","Comuna":"Nueva Imperial","Provincia":"Cautín","Nombre_Pro":"Jose Miguel Gallardo","Contacto":"957904861","Coordenada":"-38 39 41","F7":"-72 53 29","UTM_X":"683472,824","UTM_Y":"5718616,98","Obtenido_E":"2024-2025","layer_kind":"water_sources","tipo":"Fuente de agua","estado":"Disponible"},"geometry":{"type":"Point","coordinates":[-72.89127531096393,-38.66203413963169]}},{"type":"Feature","properties":{"nombre":"13","FID":"16","N°":"13","Comuna":"Cholchol","Provincia":"Cautín","Nombre_Pro":"Carlos Coliman","Contacto":"964354907","Coordenada":"-38 39 01","F7":"-72 52 56","UTM_X":"684298,992","UTM_Y":"5719831,752","Obtenido_E":"2024-2025","layer_kind":"water_sources","tipo":"Fuente de agua","estado":"Disponible"},"geometry":{"type":"Point","coordinates":[-72.88210816806841,-38.65092271448341]}},{"type":"Feature","properties":{"nombre":"14","FID":"17","N°":"14","Comuna":"Traiguen","Provincia":"Malleco","Nombre_Pro":"Gaston Schuwirth","Contacto":"996423736","Coordenada":"-38 17 15","F7":"-72 40 36","UTM_X":"703205,698","UTM_Y":"5759661,308","Obtenido_E":"2024-2025","layer_kind":"water_sources","tipo":"Fuente de agua","estado":"Disponible"},"geometry":{"type":"Point","coordinates":[-72.67654234747329,-38.28813481482499]}},{"type":"Feature","properties":{"nombre":"15","FID":"18","N°":"15","Comuna":"Traiguen","Provincia":"Malleco","Nombre_Pro":"Remigio Ballotta","Contacto":"0","Coordenada":"-38 14 48","F7":"-72 38 07","UTM_X":"706942,075","UTM_Y":"5764101,262","Obtenido_E":"2024-2025","layer_kind":"water_sources","tipo":"Fuente de agua","estado":"Disponible"},"geometry":{"type":"Point","coordinates":[-72.63515133542836,-38.24730032136576]}},{"type":"Feature","properties":{"nombre":"16","FID":"19","N°":"16","Comuna":"Traiguen","Provincia":"Malleco","Nombre_Pro":"Roxana Inostroza","Contacto":"979599870","Coordenada":"-38 13 14","F7":"-72 38 58","UTM_X":"705775,77","UTM_Y":"5767030,717","Obtenido_E":"2024-2025","layer_kind":"water_sources","tipo":"Fuente de agua","estado":"Disponible"},"geometry":{"type":"Point","coordinates":[-72.64931881126111,-38.22118852113158]}},{"type":"Feature","properties":{"nombre":"17","FID":"20","N°":"17","Comuna":"Victoria","Provincia":"Malleco","Nombre_Pro":"---","Contacto":"0","Coordenada":"-38 11 45","F7":"-72 17 38","UTM_X":"736973","UTM_Y":"5768972","Obtenido_E":"2024-2025","Observacio":"Tendido electrico","layer_kind":"water_sources","tipo":"Fuente de agua","estado":"Disponible"},"geometry":{"type":"Point","coordinates":[-72.29392761857254,-38.19603773205119]}},{"type":"Feature","properties":{"nombre":"18","FID":"21","N°":"18","Comuna":"Victoria","Provincia":"Malleco","Nombre_Pro":"Jonatan Cuevas","Contacto":"973635457","Coordenada":"- 38 10 32","F7":"-72 17 49","UTM_X":"736783","UTM_Y":"5771260","Obtenido_E":"2024-2025","layer_kind":"water_sources","tipo":"Fuente de agua","estado":"Disponible"},"geometry":{"type":"Point","coordinates":[-72.29685689306791,-38.17548985242156]}},{"type":"Feature","properties":{"nombre":"19","FID":"22","N°":"19","Comuna":"Victoria","Provincia":"Malleco","Nombre_Pro":"Jonatan Cuevas","Contacto":"973635457","Coordenada":"- 38 10 04","F7":"-72 17 57","UTM_X":"736863","UTM_Y":"5773520","Obtenido_E":"2024-2025","layer_kind":"water_sources","tipo":"Fuente de agua","estado":"Disponible"},"geometry":{"type":"Point","coordinates":[-72.29669654309998,-38.15512298385096]}},{"type":"Feature","properties":{"nombre":"20","FID":"23","N°":"20","Comuna":"Victoria","Provincia":"Malleco","Nombre_Pro":"Jonatan Cuevas","Contacto":"973635457","Coordenada":"-38 09 42","F7":"-72 17 47","UTM_X":"736846","UTM_Y":"5772775","Obtenido_E":"2024-2025","layer_kind":"water_sources","tipo":"Fuente de agua","estado":"Disponible"},"geometry":{"type":"Point","coordinates":[-72.29664257115157,-38.16183438613162]}},{"type":"Feature","properties":{"nombre":"21","FID":"24","N°":"21","Comuna":"Victoria","Provincia":"Malleco","Nombre_Pro":"Jonatan Cuevas","Contacto":"973635457","Coordenada":"- 38 09 18","F7":"-72 17 48","UTM_X":"736589","UTM_Y":"5772100","Obtenido_E":"2024-2025","layer_kind":"water_sources","tipo":"Fuente de agua","estado":"Disponible"},"geometry":{"type":"Point","coordinates":[-72.2993486191139,-38.16797861405855]}},{"type":"Feature","properties":{"nombre":"22","FID":"25","N°":"22","Comuna":"Traiguen","Provincia":"Malleco","Nombre_Pro":"Guillermo Ibañez","Contacto":"84192423","Coordenada":"- 38 12 29","F7":"-72 38 20","UTM_X":"706780","UTM_Y":"5768436","Obtenido_E":"2024-2025","layer_kind":"water_sources","tipo":"Fuente de agua","estado":"Disponible"},"geometry":{"type":"Point","coordinates":[-72.63826521831061,-38.20830386468563]}},{"type":"Feature","properties":{"nombre":"23","FID":"26","N°":"23","Comuna":"Purén","Provincia":"Malleco","Nombre_Pro":"Alejandro Curin","Contacto":"947838350","Coordenada":"-38 05 16","F7":"-72 58 23","UTM_X":"677756","UTM_Y":"5782505","Obtenido_E":"2024-2025","layer_kind":"water_sources","tipo":"Fuente de agua","estado":"Disponible"},"geometry":{"type":"Point","coordinates":[-72.97306593527584,-38.08778464618074]}},{"type":"Feature","properties":{"nombre":"24","FID":"27","N°":"24","Comuna":"Purén","Provincia":"Malleco","Nombre_Pro":"Germán Coñoepan","Contacto":"934985148","Coordenada":"-38 06 22","F7":"-72 56 37","UTM_X":"680294","UTM_Y":"5780414","Obtenido_E":"2024-2025","layer_kind":"water_sources","tipo":"Fuente de agua","estado":"Disponible"},"geometry":{"type":"Point","coordinates":[-72.94361452455584,-38.10611550936401]}},{"type":"Feature","properties":{"nombre":"25","FID":"28","N°":"25","Comuna":"Purén","Provincia":"Malleco","Nombre_Pro":"Margarita Cheuquel","Contacto":"974997110","Coordenada":"-38 06 38","F7":"-72 56 18","UTM_X":"680752","UTM_Y":"5780219","Obtenido_E":"2024-2025","layer_kind":"water_sources","tipo":"Fuente de agua","estado":"Disponible"},"geometry":{"type":"Point","coordinates":[-72.93834443231282,-38.1077803290715]}},{"type":"Feature","properties":{"nombre":"26","FID":"29","N°":"26","Comuna":"Purén","Provincia":"Malleco","Nombre_Pro":"José Arturo Chicahual","Contacto":"958673993","Coordenada":"-38 04 56","F7":"-72 56 29","UTM_X":"679817","UTM_Y":"5783077","Obtenido_E":"2024-2025","layer_kind":"water_sources","tipo":"Fuente de agua","estado":"Disponible"},"geometry":{"type":"Point","coordinates":[-72.94972229655136,-38.08222502536678]}},{"type":"Feature","properties":{"nombre":"27","FID":"30","N°":"27","Comuna":"Purén","Provincia":"Malleco","Nombre_Pro":"Esteban Huenupi","Contacto":"0","Coordenada":"-38 03 19","F7":"-72 01 22","UTM_X":"673472","UTM_Y":"5786206","Obtenido_E":"2024-2025","layer_kind":"water_sources","tipo":"Fuente de agua","estado":"Disponible"},"geometry":{"type":"Point","coordinates":[-73.0227867238581,-38.05528051470434]}},{"type":"Feature","properties":{"nombre":"28","FID":"31","N°":"28","Comuna":"Purén","Provincia":"Malleco","Nombre_Pro":"Guillermo Molina Neira","Contacto":"999285994","Coordenada":"-38 03 02","F7":"-72 01 43","UTM_X":"672972","UTM_Y":"5786741","Obtenido_E":"2024-2025","layer_kind":"water_sources","tipo":"Fuente de agua","estado":"Disponible"},"geometry":{"type":"Point","coordinates":[-73.02861185656326,-38.05055722178069]}},{"type":"Feature","properties":{"nombre":"29","FID":"32","N°":"29","Comuna":"Purén","Provincia":"Malleco","Contacto":"0","Coordenada":"-38 04 48","F7":"-72 55 52","UTM_X":"681448","UTM_Y":"5783268","Obtenido_E":"2024-2025","Observacio":"Tranque seco","layer_kind":"water_sources","tipo":"Fuente de agua","estado":"Disponible"},"geometry":{"type":"Point","coordinates":[-72.93118521520127,-38.08017886553808]}},{"type":"Feature","properties":{"nombre":"30","FID":"33","N°":"30","Comuna":"Purén","Provincia":"Malleco","Contacto":"0","Coordenada":"-38 06 43","F7":"-72 56 54","UTM_X":"679858","UTM_Y":"5779752","Obtenido_E":"2024-2025","Observacio":"Laguna seca","layer_kind":"water_sources","tipo":"Fuente de agua","estado":"Disponible"},"geometry":{"type":"Point","coordinates":[-72.94841765016758,-38.11216501568484]}},{"type":"Feature","properties":{"nombre":"31","FID":"34","N°":"31","Comuna":"Purén","Provincia":"Malleco","Contacto":"0","Coordenada":"-38 08 44","F7":"- 72 54 40","UTM_X":"683032","UTM_Y":"5775948","Obtenido_E":"2024-2025","Observacio":"Laguna seca","layer_kind":"water_sources","tipo":"Fuente de agua","estado":"Disponible"},"geometry":{"type":"Point","coordinates":[-72.91125833002687,-38.14578887070402]}},{"type":"Feature","properties":{"nombre":"32","FID":"35","N°":"32","Comuna":"Lumaco","Provincia":"Malleco","Nombre_Pro":"Eleodoro Vasquez Huircaleo","Contacto":"945223448","Coordenada":"-38 05 16","F7":"-72 58 23","UTM_X":"683305","UTM_Y":"5775628","Obtenido_E":"2024-2025","layer_kind":"water_sources","tipo":"Fuente de agua","estado":"Disponible"},"geometry":{"type":"Point","coordinates":[-72.90806245460301,-38.14861556756323]}},{"type":"Feature","properties":{"nombre":"33","FID":"36","N°":"33","Comuna":"Galvarino","Provincia":"Cautin","Nombre_Pro":"Hugo Esteban Baeza","Contacto":"978202126","Coordenada":"-38 26 50","F7":"-72 44 15","UTM_X":"697440","UTM_Y":"5742138","Obtenido_E":"2024-2025","layer_kind":"water_sources","tipo":"Fuente de agua","estado":"Disponible"},"geometry":{"type":"Point","coordinates":[-72.73750930481816,-38.44722437953505]}},{"type":"Feature","properties":{"nombre":"34","FID":"37","N°":"34","Comuna":"Cholchol","Provincia":"Cautin","Nombre_Pro":"Antonio Painemal","Contacto":"959872200","Coordenada":"-38 38 13","F7":"-72 51 22","UTM_X":"686839","UTM_Y":"5721324","Obtenido_E":"2024-2025","layer_kind":"water_sources","tipo":"Fuente de agua","estado":"Disponible"},"geometry":{"type":"Point","coordinates":[-72.85333942785388,-38.63695219567928]}},{"type":"Feature","properties":{"nombre":"35","FID":"38","N°":"35","Comuna":"Cholchol","Provincia":"Cautin","Nombre_Pro":"Gregorio Huaiqui","Contacto":"966021374","Coordenada":"-38 40 15","F7":"-72 51 11","UTM_X":"686775","UTM_Y":"5717563","Obtenido_E":"2024-2025","layer_kind":"water_sources","tipo":"Fuente de agua","estado":"Disponible"},"geometry":{"type":"Point","coordinates":[-72.8530630851437,-38.6708355703803]}},{"type":"Feature","properties":{"nombre":"36","FID":"39","N°":"36","Comuna":"Cholchol","Provincia":"Cautin","Nombre_Pro":"Mirta Carilaf","Contacto":"997314005","Coordenada":"-38 41 00","F7":"-72 49 43","UTM_X":"688869","UTM_Y":"5716125","Obtenido_E":"2024-2025","layer_kind":"water_sources","tipo":"Fuente de agua","estado":"Disponible"},"geometry":{"type":"Point","coordinates":[-72.8286175805933,-38.68334109013421]}},{"type":"Feature","properties":{"nombre":"37","FID":"40","N°":"37","Comuna":"Freire","Provincia":"Cautin","Nombre_Pro":"Guillermo Hott","Contacto":"994516547","Coordenada":"-38 57 14","F7":"-72 46 49","UTM_X":"692344","UTM_Y":"5685997","Obtenido_E":"2024-2025","layer_kind":"water_sources","tipo":"Fuente de agua","estado":"Disponible"},"geometry":{"type":"Point","coordinates":[-72.78028370960664,-38.95389187315614]}},{"type":"Feature","properties":{"nombre":"38","FID":"41","N°":"38","Comuna":"Freire","Provincia":"Cautin","Nombre_Pro":"Sven Bergshdam","Contacto":"0","Coordenada":"-38 56 28","F7":"-72 34 10","UTM_X":"710653","UTM_Y":"5686949","Obtenido_E":"2024-2025","layer_kind":"water_sources","tipo":"Fuente de agua","estado":"Disponible"},"geometry":{"type":"Point","coordinates":[-72.56945387293418,-38.94111235873473]}},{"type":"Feature","properties":{"nombre":"39","FID":"42","N°":"39","Comuna":"Freire","Provincia":"Cautin","Nombre_Pro":"Ricardo Friz","Contacto":"961718590","Coordenada":"-38 57 44","F7":"-72 37 04","UTM_X":"706403","UTM_Y":"5684716","Obtenido_E":"2024-2025","layer_kind":"water_sources","tipo":"Fuente de agua","estado":"Disponible"},"geometry":{"type":"Point","coordinates":[-72.61777782805551,-38.96222801893551]}},{"type":"Feature","properties":{"nombre":"1","FID":"46","N°":"1","Comuna":"Villarrica","Provincia":"Cautín","Nombre_Pro":"Andrea Diaz","Contacto":"999395881","Coordenada":"-39 12 17,54","F7":"-72 16 79","UTM_X":"735266,209","UTM_Y":"5656877,524","Obtenido_E":"2023-2024","layer_kind":"water_sources","tipo":"Fuente de agua","estado":"Disponible"},"geometry":{"type":"Point","coordinates":[-72.27534908396134,-39.20553156500672]}},{"type":"Feature","properties":{"nombre":"2","FID":"47","N°":"2","Comuna":"Villarrica","Provincia":"Cautín","Nombre_Pro":"Cristian Moraga","Contacto":"965457179","Coordenada":"-39 12 23,84","F7":"-72 16 28,88","UTM_X":"735330,176","UTM_Y":"5656681,168","Obtenido_E":"2023-2024","layer_kind":"water_sources","tipo":"Fuente de agua","estado":"Disponible"},"geometry":{"type":"Point","coordinates":[-72.27454069988381,-39.20728160776544]}},{"type":"Feature","properties":{"nombre":"3","FID":"48","N°":"3","Comuna":"Villarrica","Provincia":"Cautín","Nombre_Pro":"Mario Ardiles","Contacto":"971359662","Coordenada":"-39 12 22,01","F7":"-72 16 20,09","UTM_X":"735542,745","UTM_Y":"5656731,246","Obtenido_E":"2023-2024","layer_kind":"water_sources","tipo":"Fuente de agua","estado":"Disponible"},"geometry":{"type":"Point","coordinates":[-72.27209890393992,-39.20677326475592]}},{"type":"Feature","properties":{"nombre":"4","FID":"49","N°":"4","Comuna":"Villarrica","Provincia":"Cautín","Nombre_Pro":"Juan Carlos Lagos","Contacto":"934027430","Coordenada":"-39 12 18,60","F7":"-72 16 13,20","UTM_X":"735711,205","UTM_Y":"5656831,412","Obtenido_E":"2023-2024","layer_kind":"water_sources","tipo":"Fuente de agua","estado":"Disponible"},"geometry":{"type":"Point","coordinates":[-72.27018490653013,-39.20582600734402]}},{"type":"Feature","properties":{"nombre":"5","FID":"50","N°":"5","Comuna":"Villarrica","Provincia":"Cautín","Nombre_Pro":"Manuel Ojeda","Contacto":"996494694","Coordenada":"-39 12 31,07","F7":"-72 15 51,45","UTM_X":"736221,379","UTM_Y":"5656431,164","Obtenido_E":"2023-2024","layer_kind":"water_sources","tipo":"Fuente de agua","estado":"Disponible"},"geometry":{"type":"Point","coordinates":[-72.26414290376759,-39.20928998770082]}},{"type":"Feature","properties":{"nombre":"6","FID":"51","N°":"6","Comuna":"Villarrica","Provincia":"Cautín","Nombre_Pro":"Marcela Muñoz","Contacto":"989134906","Coordenada":"-39 12 28","F7":"-72 16 20","UTM_X":"735539,342","UTM_Y":"5656546,484","Obtenido_E":"2023-2024","layer_kind":"water_sources","tipo":"Fuente de agua","estado":"Disponible"},"geometry":{"type":"Point","coordinates":[-72.27207389218563,-39.20843719300383]}},{"type":"Feature","properties":{"nombre":"7","FID":"52","N°":"7","Comuna":"Nueva Imperial","Provincia":"Cautín","Nombre_Pro":"Rene Gallardo","Contacto":"941878270","Coordenada":"-38 39 28","F7":"-72 53 31","UTM_X":"683433,695","UTM_Y":"5719018,868","Obtenido_E":"2023-2024","layer_kind":"water_sources","tipo":"Fuente de agua","estado":"Disponible"},"geometry":{"type":"Point","coordinates":[-72.89183090617314,-38.65842293475869]}},{"type":"Feature","properties":{"nombre":"8","FID":"53","N°":"8","Comuna":"Cholchol","Provincia":"Cautín","Nombre_Pro":"Oscar Alarcon","Contacto":"994438395","Coordenada":"-38 38 23","F7":"-72 52 28","UTM_X":"685003,072","UTM_Y":"5720987,59","Obtenido_E":"2023-2024","layer_kind":"water_sources","tipo":"Fuente de agua","estado":"Disponible"},"geometry":{"type":"Point","coordinates":[-72.87433000264733,-38.64036686386527]}},{"type":"Feature","properties":{"nombre":"9","FID":"54","N°":"9","Comuna":"Cholchol","Provincia":"Cautín","Nombre_Pro":"Rene Coliman","Contacto":"973777245","Coordenada":"-38 39 01","F7":"-72 52 56","UTM_X":"684298,992","UTM_Y":"5719831,752","Obtenido_E":"2023-2024","layer_kind":"water_sources","tipo":"Fuente de agua","estado":"Disponible"},"geometry":{"type":"Point","coordinates":[-72.88210816806841,-38.65092271448341]}},{"type":"Feature","properties":{"nombre":"10","FID":"55","N°":"10","Comuna":"Cholchol","Provincia":"Cautín","Nombre_Pro":"Galvarino Gallardo","Contacto":"950867572","Coordenada":"-38 38 19","F7":"-72 52 53","UTM_X":"684401,432","UTM_Y":"5721124,892","Obtenido_E":"2023-2024","layer_kind":"water_sources","tipo":"Fuente de agua","estado":"Disponible"},"geometry":{"type":"Point","coordinates":[-72.88127482264787,-38.63925573174784]}},{"type":"Feature","properties":{"nombre":"11","FID":"56","N°":"11","Comuna":"Traiguén","Provincia":"Malleco","Nombre_Pro":"Agricola Alto Traiguen","Contacto":"932657247","Coordenada":"-38 20 34,15","F7":"-72 42 15,43","UTM_X":"700637,119","UTM_Y":"5753582,227","Obtenido_E":"2023-2024","layer_kind":"water_sources","tipo":"Fuente de agua","estado":"Disponible"},"geometry":{"type":"Point","coordinates":[-72.7041631436336,-38.34345578972881]}},{"type":"Feature","properties":{"nombre":"12","FID":"57","N°":"12","Comuna":"Renaico","Provincia":"Malleco","Nombre_Pro":"Doris Sanhueza","Contacto":"992928060","Coordenada":"-37 42 13,89","F7":"-72 38 53,13","UTM_X":"707342,943","UTM_Y":"5824369,375","Obtenido_E":"2023-2024","layer_kind":"water_sources","tipo":"Fuente de agua","estado":"Disponible"},"geometry":{"type":"Point","coordinates":[-72.64796707198569,-37.70447743062031]}},{"type":"Feature","properties":{"nombre":"13","FID":"58","N°":"13","Comuna":"Angol","Provincia":"Malleco","Nombre_Pro":"Alejandro Castillo","Contacto":"998895367","Coordenada":"-37 48 54,04","F7":"-72 37 30,93","UTM_X":"709042,962","UTM_Y":"5811983,427","Obtenido_E":"2023-2024","layer_kind":"water_sources","tipo":"Fuente de agua","estado":"Disponible"},"geometry":{"type":"Point","coordinates":[-72.62513229450296,-37.81563315073862]}},{"type":"Feature","properties":{"nombre":"14","FID":"59","N°":"14","Comuna":"Angol","Provincia":"Malleco","Nombre_Pro":"Alejandro Castillo","Contacto":"998895367","Coordenada":"-37 45 10,64","F7":"-72 39 28,37","UTM_X":"706343,473","UTM_Y":"5818942,523","Obtenido_E":"2023-2024","layer_kind":"water_sources","tipo":"Fuente de agua","estado":"Disponible"},"geometry":{"type":"Point","coordinates":[-72.65775637891818,-37.75357597912945]}},{"type":"Feature","properties":{"nombre":"15","FID":"60","N°":"15","Comuna":"Lautaro","Provincia":"Cautín","Nombre_Pro":"Hector Fernandez","Contacto":"958011948","Coordenada":"-38 35 42,46","F7":"-72 33 50,98","UTM_X":"712144,156","UTM_Y":"5725265,393","Obtenido_E":"2023-2024","layer_kind":"water_sources","tipo":"Fuente de agua","estado":"Disponible"},"geometry":{"type":"Point","coordinates":[-72.56403007573324,-38.59577079405864]}},{"type":"Feature","properties":{"nombre":"16 (1)","FID":"61","N°":"16 (1)","Comuna":"Lautaro","Provincia":"Cautín","Nombre_Pro":"Marcia Jara","Contacto":"976482532","Coordenada":"-38 32 59,72","F7":"-72 35 10,24","UTM_X":"710358,278","UTM_Y":"5730333,332","Obtenido_E":"2023-2024","layer_kind":"water_sources","tipo":"Fuente de agua","estado":"Disponible"},"geometry":{"type":"Point","coordinates":[-72.58604802572457,-38.55056403635324]}},{"type":"Feature","properties":{"nombre":"16 (2)","FID":"62","N°":"16 (2)","Comuna":"Lautaro","Provincia":"Cautín","Nombre_Pro":"Marcia Jara","Contacto":"976482532","Coordenada":"-38 33 03,33","F7":"-72 35 07,34","UTM_X":"710425,565","UTM_Y":"5730220,191","Obtenido_E":"2023-2024","layer_kind":"water_sources","tipo":"Fuente de agua","estado":"Disponible"},"geometry":{"type":"Point","coordinates":[-72.58524242021639,-38.55156684152112]}},{"type":"Feature","properties":{"nombre":"16 (3)","FID":"63","N°":"16 (3)","Comuna":"Lautaro","Provincia":"Cautín","Nombre_Pro":"Marcia Jara","Contacto":"976482532","Coordenada":"-38 33 10,73","F7":"-72 35 08,10","UTM_X":"710401,17","UTM_Y":"5729992,533","Obtenido_E":"2023-2024","layer_kind":"water_sources","tipo":"Fuente de agua","estado":"Disponible"},"geometry":{"type":"Point","coordinates":[-72.58545353697134,-38.55362245300046]}},{"type":"Feature","properties":{"nombre":"17","FID":"64","N°":"17","Comuna":"Lautaro","Provincia":"Cautín","Nombre_Pro":"Pablo Cordova","Contacto":"942083075","Coordenada":"-38 35 35,96","F7":"-72 34 23,81","UTM_X":"711355,109","UTM_Y":"5725486,829","Obtenido_E":"2023-2024","layer_kind":"water_sources","tipo":"Fuente de agua","estado":"Disponible"},"geometry":{"type":"Point","coordinates":[-72.57315001298227,-38.59396520099262]}},{"type":"Feature","properties":{"nombre":"18","FID":"65","N°":"18","Comuna":"Traiguén","Provincia":"Malleco","Nombre_Pro":"Roxana Inostroza","Contacto":"979599870","Coordenada":"-38 13 14,80","F7":"-72 38 59,24","UTM_X":"705744,986","UTM_Y":"5767006,82","Obtenido_E":"2023-2024","layer_kind":"water_sources","tipo":"Fuente de agua","estado":"Disponible"},"geometry":{"type":"Point","coordinates":[-72.64966327235987,-38.22141075258915]}},{"type":"Feature","properties":{"nombre":"19","FID":"66","N°":"19","Comuna":"Traiguén","Provincia":"Malleco","Nombre_Pro":"Jose Luis Monje","Contacto":"9968918520","Coordenada":"-38 09 45,23","F7":"-72 42 07,70","UTM_X":"701321,8","UTM_Y":"5773582,482","Obtenido_E":"2023-2024","layer_kind":"water_sources","tipo":"Fuente de agua","estado":"Disponible"},"geometry":{"type":"Point","coordinates":[-72.70201619387174,-38.16319535730859]}},{"type":"Feature","properties":{"nombre":"20","FID":"67","N°":"20","Comuna":"Traiguén","Provincia":"Malleco","Nombre_Pro":"Jose Luis Monje","Contacto":"9968918520","Coordenada":"-38 09 53,23","F7":"-72 42 38,69","UTM_X":"700561,413","UTM_Y":"5773354,528","Obtenido_E":"2023-2024","layer_kind":"water_sources","tipo":"Fuente de agua","estado":"Disponible"},"geometry":{"type":"Point","coordinates":[-72.7106249794451,-38.16541765413464]}},{"type":"Feature","properties":{"nombre":"21","FID":"68","N°":"21","Comuna":"Galvarino","Provincia":"Cautín","Nombre_Pro":"Raul Quintas","Contacto":"996430345","Coordenada":"-38 26 28,19","F7":"-72 48 45,25","UTM_X":"690913,544","UTM_Y":"5742897,672","Obtenido_E":"2023-2024","layer_kind":"water_sources","tipo":"Fuente de agua","estado":"Disponible"},"geometry":{"type":"Point","coordinates":[-72.81245208033785,-38.44180304302662]}},{"type":"Feature","properties":{"nombre":"22","FID":"69","N°":"22","Comuna":"Temuco","Provincia":"Cautín","Nombre_Pro":"Jose Figueroa","Contacto":"0","Coordenada":"-38 39 32,09","F7":"-72 36 12,13","UTM_X":"708543,974","UTM_Y":"5718275,757","Obtenido_E":"2023-2024","layer_kind":"water_sources","tipo":"Fuente de agua","estado":"Disponible"},"geometry":{"type":"Point","coordinates":[-72.60324036603812,-38.65955869701033]}},{"type":"Feature","properties":{"nombre":"23","FID":"70","N°":"23","Comuna":"Temuco","Provincia":"Cautín","Nombre_Pro":"Jose Figueroa","Contacto":"0","Coordenada":"-38 39 31,36","F7":"-72 36 17,80","UTM_X":"708407,495","UTM_Y":"5718301,845","Obtenido_E":"2023-2024","layer_kind":"water_sources","tipo":"Fuente de agua","estado":"Disponible"},"geometry":{"type":"Point","coordinates":[-72.60481545051213,-38.65935592133225]}},{"type":"Feature","properties":{"nombre":"24","FID":"71","N°":"24","Comuna":"Temuco","Provincia":"Cautín","Nombre_Pro":"Jose Figueroa","Contacto":"0","Coordenada":"-38 39 31,75","F7":"-72 36 17,15","UTM_X":"708422,894","UTM_Y":"5718289,411","Obtenido_E":"2023-2024","layer_kind":"water_sources","tipo":"Fuente de agua","estado":"Disponible"},"geometry":{"type":"Point","coordinates":[-72.60463488532982,-38.65946425385671]}},{"type":"Feature","properties":{"nombre":"25","FID":"72","N°":"25","Comuna":"Temuco","Provincia":"Cautín","Nombre_Pro":"Jose Figueroa","Contacto":"0","Coordenada":"-38 39 31,84","F7":"-72 36 18,48","UTM_X":"708390,67","UTM_Y":"5718287,476","Obtenido_E":"2023-2024","layer_kind":"water_sources","tipo":"Fuente de agua","estado":"Disponible"},"geometry":{"type":"Point","coordinates":[-72.60500434869492,-38.65948925798995]}},{"type":"Feature","properties":{"nombre":"26","FID":"73","N°":"26","Comuna":"Vilcún","Provincia":"Cautín","Nombre_Pro":"Cristian Rodriguez","Contacto":"992595404","Coordenada":"-38 46 11,44","F7":"-72 15 02,43","UTM_X":"738868,921","UTM_Y":"5705101,17","Obtenido_E":"2023-2024","layer_kind":"water_sources","tipo":"Fuente de agua","estado":"Disponible"},"geometry":{"type":"Point","coordinates":[-72.25052665854095,-38.77049176409786]}},{"type":"Feature","properties":{"nombre":"27","FID":"74","N°":"27","Comuna":"Vilcún","Provincia":"Cautín","Nombre_Pro":"Sergio Viabas","Contacto":"989019234","Coordenada":"-38 47 58,76","F7":"-72 15 35,20","UTM_X":"737978,709","UTM_Y":"5701815,955","Obtenido_E":"2023-2024","layer_kind":"water_sources","tipo":"Fuente de agua","estado":"Disponible"},"geometry":{"type":"Point","coordinates":[-72.25962985071585,-38.80030370497495]}},{"type":"Feature","properties":{"nombre":"28","FID":"75","N°":"28","Comuna":"Vilcún","Provincia":"Cautín","Nombre_Pro":"Hernan Taladriz","Contacto":"994436480","Coordenada":"-38 45 28,77","F7":"-72 20 14,13","UTM_X":"731383,433","UTM_Y":"5706639,459","Obtenido_E":"2023-2024","layer_kind":"water_sources","tipo":"Fuente de agua","estado":"Disponible"},"geometry":{"type":"Point","coordinates":[-72.3371146941574,-38.75863879277305]}},{"type":"Feature","properties":{"nombre":"29 (1)","FID":"76","N°":"29 (1)","Comuna":"Vilcún","Provincia":"Cautín","Nombre_Pro":"Blas Varas","Contacto":"958810945","Coordenada":"-38 43 50,83","F7":"-72 21 38,27","UTM_X":"729439,27","UTM_Y":"5709718,021","Obtenido_E":"2023-2024","layer_kind":"water_sources","tipo":"Fuente de agua","estado":"Disponible"},"geometry":{"type":"Point","coordinates":[-72.36048823524226,-38.73143252892868]}},{"type":"Feature","properties":{"nombre":"29 (2)","FID":"77","N°":"29 (2)","Comuna":"Vilcún","Provincia":"Cautín","Nombre_Pro":"Blas Varas","Contacto":"958810945","Coordenada":"-38 44 04,83","F7":"-72 21 04,33","UTM_X":"730246,455","UTM_Y":"5709262,69","Obtenido_E":"2023-2024","layer_kind":"water_sources","tipo":"Fuente de agua","estado":"Disponible"},"geometry":{"type":"Point","coordinates":[-72.35105994836071,-38.73532151088487]}},{"type":"Feature","properties":{"nombre":"30","FID":"78","N°":"30","Comuna":"Los Sauces","Provincia":"Malleco","Nombre_Pro":"Manuel Ulloa","Contacto":"962169471","Coordenada":"-37 53 48,16","F7":"-72 59 08,24","UTM_X":"677121,716","UTM_Y":"5803662,628","Obtenido_E":"2023-2024","layer_kind":"water_sources","tipo":"Fuente de agua","estado":"Disponible"},"geometry":{"type":"Point","coordinates":[-72.98551514993021,-37.8973357886081]}},{"type":"Feature","properties":{"nombre":"31","FID":"79","N°":"31","Comuna":"Purén","Provincia":"Malleco","Nombre_Pro":"Omar Astudillo","Contacto":"991366982","Coordenada":"-38 00 25","F7":"-73 10 32","UTM_X":"660145","UTM_Y":"5791819","Obtenido_E":"2023-2024","layer_kind":"water_sources","tipo":"Fuente de agua","estado":"Disponible"},"geometry":{"type":"Point","coordinates":[-73.17586707331333,-38.00717369127077]}},{"type":"Feature","properties":{"nombre":"32","FID":"80","N°":"32","Comuna":"Perquenco","Provincia":"Cautín","Nombre_Pro":"Moises Velasco","Contacto":"996439874","Coordenada":"-38 27 18,62","F7":"-72 31 06,91","UTM_X":"716533,247","UTM_Y":"5740692,536","Obtenido_E":"2023-2024","layer_kind":"water_sources","tipo":"Fuente de agua","estado":"Disponible"},"geometry":{"type":"Point","coordinates":[-72.51845294826438,-38.45581135667496]}},{"type":"Feature","properties":{"nombre":"33","FID":"81","N°":"33","Comuna":"Perquenco","Provincia":"Cautín","Nombre_Pro":"Luis Herdener","Contacto":"998657106","Coordenada":"-38 27 46,30","F7":"-72 25 59,88","UTM_X":"723952,813","UTM_Y":"5739635,095","Obtenido_E":"2023-2024","layer_kind":"water_sources","tipo":"Fuente de agua","estado":"Disponible"},"geometry":{"type":"Point","coordinates":[-72.43316224970181,-38.46350033244501]}},{"type":"Feature","properties":{"nombre":"34","FID":"82","N°":"34","Comuna":"Perquenco","Provincia":"Cautín","Nombre_Pro":"Rene Caminondo","Contacto":"954724858","Coordenada":"-38 28 23,99","F7":"-72 29 09,44","UTM_X":"719326,029","UTM_Y":"5738599,916","Obtenido_E":"2023-2024","layer_kind":"water_sources","tipo":"Fuente de agua","estado":"Disponible"},"geometry":{"type":"Point","coordinates":[-72.48582060089043,-38.47397014428596]}},{"type":"Feature","properties":{"nombre":"35","FID":"83","N°":"35","Comuna":"Perquenco","Provincia":"Cautín","Nombre_Pro":"Eliana Hauri","Contacto":"968390356","Coordenada":"-38 28 06,44","F7":"-72 25 47,32","UTM_X":"724239,939","UTM_Y":"5739005,676","Obtenido_E":"2023-2024","layer_kind":"water_sources","tipo":"Fuente de agua","estado":"Disponible"},"geometry":{"type":"Point","coordinates":[-72.42967315378571,-38.46909492075708]}},{"type":"Feature","properties":{"nombre":"36","FID":"84","N°":"36","Comuna":"Perquenco","Provincia":"Cautín","Nombre_Pro":"Andrea Taladniz","Contacto":"996450412","Coordenada":"-38 28 35,84","F7":"-72 26 15,15","UTM_X":"723540,135","UTM_Y":"5738118,071","Obtenido_E":"2023-2024","layer_kind":"water_sources","tipo":"Fuente de agua","estado":"Disponible"},"geometry":{"type":"Point","coordinates":[-72.43740410838348,-38.47726182376004]}},{"type":"Feature","properties":{"nombre":"37 (1)","FID":"85","N°":"37 (1)","Comuna":"Freire","Provincia":"Cautín","Nombre_Pro":"Juan Carlos Nahuelcoi","Contacto":"949975671","Coordenada":"-38 58 01,00","F7":"-72 42 00,65","UTM_X":"699258,291","UTM_Y":"5684303,291","Obtenido_E":"2023-2024","layer_kind":"water_sources","tipo":"Fuente de agua","estado":"Disponible"},"geometry":{"type":"Point","coordinates":[-72.70005601140447,-38.96759784283235]}},{"type":"Feature","properties":{"nombre":"37 (2)","FID":"86","N°":"37 (2)","Comuna":"Freire","Provincia":"Cautín","Nombre_Pro":"Juan Carlos Nahuelcoi","Contacto":"949975671","Coordenada":"-38 58 14,54","F7":"-72 42 03,27","UTM_X":"699184,688","UTM_Y":"5683887,429","Obtenido_E":"2023-2024","layer_kind":"water_sources","tipo":"Fuente de agua","estado":"Disponible"},"geometry":{"type":"Point","coordinates":[-72.70078382216468,-38.97135905545567]}},{"type":"Feature","properties":{"nombre":"37 (3)","FID":"87","N°":"37 (3)","Comuna":"Freire","Provincia":"Cautín","Nombre_Pro":"Juan Carlos Nahuelcoi","Contacto":"949975671","Coordenada":"-38 58 16,90","F7":"-72 42 03,45","UTM_X":"699178,518","UTM_Y":"5683814,777","Obtenido_E":"2023-2024","layer_kind":"water_sources","tipo":"Fuente de agua","estado":"Disponible"},"geometry":{"type":"Point","coordinates":[-72.70083382894894,-38.97201462629619]}},{"type":"Feature","properties":{"nombre":"38","FID":"88","N°":"38","Comuna":"Teodoro Schmidt","Provincia":"Cautín","Nombre_Pro":"Erna Valdebenito","Contacto":"990118004","Coordenada":"-38 57 14,42","F7":"-72 54 00,04","UTM_X":"681976,199","UTM_Y":"5686157,666","Obtenido_E":"2023-2024","layer_kind":"water_sources","tipo":"Fuente de agua","estado":"Disponible"},"geometry":{"type":"Point","coordinates":[-72.89989741355147,-38.95465885550487]}},{"type":"Feature","properties":{"nombre":"39 (1)","FID":"89","N°":"39 (1)","Comuna":"Pitrufquén","Provincia":"Cautín","Nombre_Pro":"Leonardo Fonseca","Contacto":"994433199","Coordenada":"-39 02 25,59","F7":"-72 38 37,51","UTM_X":"703936,554","UTM_Y":"5676020,539","Obtenido_E":"2023-2024","layer_kind":"water_sources","tipo":"Fuente de agua","estado":"Disponible"},"geometry":{"type":"Point","coordinates":[-72.64362501342077,-39.04109701073281]}},{"type":"Feature","properties":{"nombre":"39 (2)","FID":"90","N°":"39 (2)","Comuna":"Pitrufquén","Provincia":"Cautín","Nombre_Pro":"Leonardo Fonseca","Contacto":"994433199","Coordenada":"-39 02 25,94","F7":"-72 38 27,89","UTM_X":"704167,586","UTM_Y":"5676003,749","Obtenido_E":"2023-2024","layer_kind":"water_sources","tipo":"Fuente de agua","estado":"Disponible"},"geometry":{"type":"Point","coordinates":[-72.64095264472255,-39.0411942355853]}},{"type":"Feature","properties":{"nombre":"39 (3)","FID":"91","N°":"39 (3)","Comuna":"Pitrufquén","Provincia":"Cautín","Nombre_Pro":"Leonardo Fonseca","Contacto":"994433199","Coordenada":"-39 02 35,19","F7":"-72 38 24,70","UTM_X":"704236,886","UTM_Y":"5675716,564","Obtenido_E":"2023-2024","layer_kind":"water_sources","tipo":"Fuente de agua","estado":"Disponible"},"geometry":{"type":"Point","coordinates":[-72.64006648175575,-39.04376374954231]}},{"type":"Feature","properties":{"nombre":"39 (4)","FID":"92","N°":"39 (4)","Comuna":"Pitrufquén","Provincia":"Cautín","Nombre_Pro":"Leonardo Fonseca","Contacto":"994433199","Coordenada":"-39 02 22,46","F7":"-72 38 25,08","UTM_X":"704237,936","UTM_Y":"5676109,291","Obtenido_E":"2023-2024","layer_kind":"water_sources","tipo":"Fuente de agua","estado":"Disponible"},"geometry":{"type":"Point","coordinates":[-72.64017206033542,-39.04022753512893]}},{"type":"Feature","properties":{"nombre":"40","FID":"93","N°":"40","Comuna":"Pitrufquén","Provincia":"Cautín","Nombre_Pro":"Ramon Cifuentes","Contacto":"972114147","Coordenada":"-39 02 24,89","F7":"-72 38 15,23","UTM_X":"704472,835","UTM_Y":"5676028,218","Obtenido_E":"2023-2024","layer_kind":"water_sources","tipo":"Fuente de agua","estado":"Disponible"},"geometry":{"type":"Point","coordinates":[-72.63743579198646,-39.040902556327]}},{"type":"Feature","properties":{"nombre":"41 (1)","FID":"94","N°":"41 (1)","Comuna":"Gorbea","Provincia":"Cautín","Nombre_Pro":"Nelson Mondaca","Contacto":"964964496","Coordenada":"-38 06 25,00","F7":"-72 39 20,07","UTM_X":"705557,98","UTM_Y":"5779652,932","Obtenido_E":"2023-2024","layer_kind":"water_sources","tipo":"Fuente de agua","estado":"Disponible"},"geometry":{"type":"Point","coordinates":[-72.65544993677454,-38.10757435531629]}},{"type":"Feature","properties":{"nombre":"41 (2)","FID":"95","N°":"41 (2)","Comuna":"Gorbea","Provincia":"Cautín","Nombre_Pro":"Nelson Mondaca","Contacto":"964964496","Coordenada":"-39 06 30,91","F7":"-72 39 46,41","UTM_X":"702085,282","UTM_Y":"5668499,627","Obtenido_E":"2023-2024","layer_kind":"water_sources","tipo":"Fuente de agua","estado":"Disponible"},"geometry":{"type":"Point","coordinates":[-72.6627647927142,-39.10924336687651]}},{"type":"Feature","properties":{"nombre":"42","FID":"96","N°":"42","Comuna":"Teodoro Schmidt","Provincia":"Cautín","Nombre_Pro":"Mauricio Valdebenito","Contacto":"989592302","Coordenada":"-38 56 08,58","F7":"-72 53 19,11","UTM_X":"683008,561","UTM_Y":"5688164,757","Obtenido_E":"2023-2024","layer_kind":"water_sources","tipo":"Fuente de agua","estado":"Disponible"},"geometry":{"type":"Point","coordinates":[-72.88852738592881,-38.93636944319402]}},{"type":"Feature","properties":{"nombre":"43","FID":"97","N°":"43","Comuna":"Los Sauces","Provincia":"Malleco","Nombre_Pro":"Mauricio Ramirez","Contacto":"993233789","Coordenada":"-37 58 35,68","F7":"-72 57 25,90","UTM_X":"679427,242","UTM_Y":"5794745,335","Obtenido_E":"2023-2024","layer_kind":"water_sources","tipo":"Fuente de agua","estado":"Disponible"},"geometry":{"type":"Point","coordinates":[-72.9570857123764,-37.97720456403199]}},{"type":"Feature","properties":{"nombre":"44","FID":"98","N°":"44","Comuna":"Purén","Provincia":"Malleco","Nombre_Pro":"Maria Ancalao","Contacto":"920234700","Coordenada":"-38 04 12,00","F7":"-72 59 42,00","UTM_X":"675882,74","UTM_Y":"5784450,294","Obtenido_E":"2023-2024","layer_kind":"water_sources","tipo":"Fuente de agua","estado":"Disponible"},"geometry":{"type":"Point","coordinates":[-72.99489310192935,-38.07062933328204]}},{"type":"Feature","properties":{"nombre":"45","FID":"99","N°":"45","Comuna":"Purén","Provincia":"Malleco","Nombre_Pro":"Gabriel Tramolao","Contacto":"961640740","Coordenada":"-38 04 18,28","F7":"-72 59 25,78","UTM_X":"676273,827","UTM_Y":"5784248,165","Obtenido_E":"2023-2024","layer_kind":"water_sources","tipo":"Fuente de agua","estado":"Disponible"},"geometry":{"type":"Point","coordinates":[-72.99038730728641,-38.07237382416387]}},{"type":"Feature","properties":{"nombre":"46","FID":"100","N°":"46","Comuna":"Purén","Provincia":"Malleco","Nombre_Pro":"Carlos Melin","Contacto":"974434175","Coordenada":"-38 04 26,00","F7":"-72 59 34,91","UTM_X":"676046,195","UTM_Y":"5784015,001","Obtenido_E":"2023-2024","layer_kind":"water_sources","tipo":"Fuente de agua","estado":"Disponible"},"geometry":{"type":"Point","coordinates":[-72.99292354733312,-38.07451832521797]}},{"type":"Feature","properties":{"nombre":"Marcelo Monsalve","N�":"1","Comuna":"Temuco","Provincia":"Cautin","Nombre Pro":"Marcelo Monsalve","Contacto":"989036622","Coordenada":"-38 41 53","UTM X":"702514,094","UTM Y":"5714084,059","Obtenido E":"2024-2025","layer_kind":"water_sources","tipo":"Fuente de agua","estado":"Disponible"},"geometry":{"type":"Point","coordinates":[-72.67126338659413,-38.69870152893549]}},{"type":"Feature","properties":{"nombre":"Hernan Millanao","N�":"2","Comuna":"Temuco","Provincia":"Cautin","Nombre Pro":"Hernan Millanao","Contacto":"997263907","Coordenada":"-38 38 22","UTM X":"696174,889","UTM Y":"5720751,702","Obtenido E":"2024-2025","layer_kind":"water_sources","tipo":"Fuente de agua","estado":"Disponible"},"geometry":{"type":"Point","coordinates":[-72.74598976166949,-38.64008891420646]}},{"type":"Feature","properties":{"nombre":"Nicolas Nu�ez","N�":"3","Comuna":"Lautaro","Provincia":"Cautin","Nombre Pro":"Nicolas Nu�ez","Contacto":"957402855","Coordenada":"-38 33 24","UTM X":"715525,081","UTM Y":"5729446,829","Obtenido E":"2024-2025","layer_kind":"water_sources","tipo":"Fuente de agua","estado":"Disponible"},"geometry":{"type":"Point","coordinates":[-72.5265336992656,-38.55730857468956]}},{"type":"Feature","properties":{"nombre":"Jose Jara","N�":"4 (1)","Comuna":"Lautaro","Provincia":"Cautin","Nombre Pro":"Jose Jara","Contacto":"979571279","Coordenada":"-38 32 59","UTM X":"710364,672","UTM Y":"5730355,377","Obtenido E":"2024-2025","layer_kind":"water_sources","tipo":"Fuente de agua","estado":"Disponible"},"geometry":{"type":"Point","coordinates":[-72.58598135312845,-38.55036402985417]}},{"type":"Feature","properties":{"nombre":"Jose Jara","N�":"4 (2)","Comuna":"Lautaro","Provincia":"Cautin","Nombre Pro":"Jose Jara","Contacto":"979571279","Coordenada":"-38 33 03","UTM X":"710434,064","UTM Y":"5730230,149","Obtenido E":"2024-2025","layer_kind":"water_sources","tipo":"Fuente de agua","estado":"Disponible"},"geometry":{"type":"Point","coordinates":[-72.58514797043252,-38.55147516817652]}},{"type":"Feature","properties":{"nombre":"Jose Jara","N�":"4 (3)","Comuna":"Lautaro","Provincia":"Cautin","Nombre Pro":"Jose Jara","Contacto":"979571279","Coordenada":"-38 33 10","UTM X":"710404,182","UTM Y":"5730014,976","Obtenido E":"2024-2025","layer_kind":"water_sources","tipo":"Fuente de agua","estado":"Disponible"},"geometry":{"type":"Point","coordinates":[-72.58542576308427,-38.55341966291023]}},{"type":"Feature","properties":{"nombre":"Javier Sandoval","N�":"5","Comuna":"Lautaro","Provincia":"Cautin","Nombre Pro":"Javier Sandoval","Contacto":"991689924","Coordenada":"-38 35 07","UTM X":"713334,235","UTM Y":"5726327,744","Obtenido E":"2024-2025","layer_kind":"water_sources","tipo":"Fuente de agua","estado":"Disponible"},"geometry":{"type":"Point","coordinates":[-72.55070159986131,-38.585920506202]}},{"type":"Feature","properties":{"nombre":"Pablo Cordova","N�":"6","Comuna":"Lautaro","Provincia":"Cautin","Nombre Pro":"Pablo Cordova","Contacto":"942083075","Coordenada":"-38 35 35","UTM X":"711423,883","UTM Y":"5725514,628","Obtenido E":"2024-2025","layer_kind":"water_sources","tipo":"Fuente de agua","estado":"Disponible"},"geometry":{"type":"Point","coordinates":[-72.57236941898866,-38.59369852839252]}},{"type":"Feature","properties":{"nombre":"Jose Galilea","N�":"7","Comuna":"Victoria","Provincia":"Malleco","Nombre Pro":"Jose Galilea","Contacto":"992244129","Coordenada":"-38 14 39","UTM X":"719932,496","UTM Y":"5764036,407","Obtenido E":"2024-2025","layer_kind":"water_sources","tipo":"Fuente de agua","estado":"Disponible"},"geometry":{"type":"Point","coordinates":[-72.48681008135807,-38.2448000388426]}},{"type":"Feature","properties":{"nombre":"Guillermo Raiman","N�":"8","Comuna":"Traiguen","Provincia":"Malleco","Nombre Pro":"Guillermo Raiman","Contacto":"974419682","Coordenada":"-38 08 01","UTM X":"696280,743","UTM Y":"5776920,907","Obtenido E":"2024-2025","layer_kind":"water_sources","tipo":"Fuente de agua","estado":"Disponible"},"geometry":{"type":"Point","coordinates":[-72.76043603779887,-38.13424187168084]}},{"type":"Feature","properties":{"nombre":"Italo Piccioli","N�":"9 (1)","Comuna":"Los Sauces","Provincia":"Malleco","Nombre Pro":"Italo Piccioli","Contacto":"998765547","Coordenada":"-38 04 16","UTM X":"695180,87","UTM Y":"5783887,455","Obtenido E":"2024-2025","layer_kind":"water_sources","tipo":"Fuente de agua","estado":"Disponible"},"geometry":{"type":"Point","coordinates":[-72.77488137911638,-38.07174021569725]}},{"type":"Feature","properties":{"nombre":"Italo Piccioli","N�":"9 (2)","Comuna":"Los Sauces","Provincia":"Malleco","Nombre Pro":"Italo Piccioli","Contacto":"998765547","Coordenada":"-38 04 47","UTM X":"695109,238","UTM Y":"5782932,99","Obtenido E":"2024-2025","layer_kind":"water_sources","tipo":"Fuente de agua","estado":"Disponible"},"geometry":{"type":"Point","coordinates":[-72.77543694491321,-38.08035155698838]}},{"type":"Feature","properties":{"nombre":"Italo Piccioli","N�":"9 (3)","Comuna":"Los Sauces","Provincia":"Malleco","Nombre Pro":"Italo Piccioli","Contacto":"998765547","Coordenada":"-38 05 19","UTM X":"694890,688","UTM Y":"5781951,197","Obtenido E":"2024-2025","layer_kind":"water_sources","tipo":"Fuente de agua","estado":"Disponible"},"geometry":{"type":"Point","coordinates":[-72.7776592751107,-38.08924068988308]}},{"type":"Feature","properties":{"nombre":"Eduardo Cortes","N�":"10","Comuna":"Cunco","Provincia":"Cautin","Nombre Pro":"Eduardo Cortes","Contacto":"998471876","Coordenada":"-38 52 19","UTM X":"734078,971","UTM Y":"5693901,065","Obtenido E":"2024-2025","layer_kind":"water_sources","tipo":"Fuente de agua","estado":"Disponible"},"geometry":{"type":"Point","coordinates":[-72.30179860649005,-38.87259464334121]}},{"type":"Feature","properties":{"nombre":"Felipe Gallardo","N�":"11","Comuna":"Nueva Imperial","Provincia":"Cautin","Nombre Pro":"Felipe Gallardo","Contacto":"961620672","Coordenada":"-38 40 45","UTM X":"683427,432","UTM Y":"5716643,922","Obtenido E":"2024-2025","layer_kind":"water_sources","tipo":"Fuente de agua","estado":"Disponible"},"geometry":{"type":"Point","coordinates":[-72.89127527641774,-38.67981240841564]}},{"type":"Feature","properties":{"nombre":"Jose Miguel Gallardo","N�":"12","Comuna":"Nueva Imperial","Provincia":"Cautin","Nombre Pro":"Jose Miguel Gallardo","Contacto":"957904861","Coordenada":"-38 39 41","UTM X":"683472,824","UTM Y":"5718616,98","Obtenido E":"2024-2025","layer_kind":"water_sources","tipo":"Fuente de agua","estado":"Disponible"},"geometry":{"type":"Point","coordinates":[-72.89127531096393,-38.66203413963169]}},{"type":"Feature","properties":{"nombre":"Carlos Coliman","N�":"13","Comuna":"Cholchol","Provincia":"Cautin","Nombre Pro":"Carlos Coliman","Contacto":"964354907","Coordenada":"-38 39 01","UTM X":"684298,992","UTM Y":"5719831,752","Obtenido E":"2024-2025","layer_kind":"water_sources","tipo":"Fuente de agua","estado":"Disponible"},"geometry":{"type":"Point","coordinates":[-72.88210816806841,-38.65092271448341]}},{"type":"Feature","properties":{"nombre":"Gaston Schuwirth","N�":"14","Comuna":"Traiguen","Provincia":"Malleco","Nombre Pro":"Gaston Schuwirth","Contacto":"996423736","Coordenada":"-38 17 15","UTM X":"703205,698","UTM Y":"5759661,308","Obtenido E":"2024-2025","layer_kind":"water_sources","tipo":"Fuente de agua","estado":"Disponible"},"geometry":{"type":"Point","coordinates":[-72.67654234747329,-38.28813481482499]}},{"type":"Feature","properties":{"nombre":"Remigio Ballotta","N�":"15","Comuna":"Traiguen","Provincia":"Malleco","Nombre Pro":"Remigio Ballotta","Contacto":"-","Coordenada":"-38 14 48","UTM X":"706942,075","UTM Y":"5764101,262","Obtenido E":"2024-2025","layer_kind":"water_sources","tipo":"Fuente de agua","estado":"Disponible"},"geometry":{"type":"Point","coordinates":[-72.63515133542836,-38.24730032136576]}},{"type":"Feature","properties":{"nombre":"Roxana Inostroza","N�":"16","Comuna":"Traiguen","Provincia":"Malleco","Nombre Pro":"Roxana Inostroza","Contacto":"979599870","Coordenada":"-38 13 14","UTM X":"705775,77","UTM Y":"5767030,717","Obtenido E":"2024-2025","layer_kind":"water_sources","tipo":"Fuente de agua","estado":"Disponible"},"geometry":{"type":"Point","coordinates":[-72.64931881126111,-38.22118852113158]}},{"type":"Feature","properties":{"nombre":"Andrea Diaz","N�":"1","Comuna":"Villarrica","Provincia":"Cautin","Nombre Pro":"Andrea Diaz","Contacto":"999395881","Coordenada":"-39 12 17,54","UTM X":"735266,209","UTM Y":"5656877,524","Obtenido E":"2023-2024","layer_kind":"water_sources","tipo":"Fuente de agua","estado":"Disponible"},"geometry":{"type":"Point","coordinates":[-72.27534908396134,-39.20553156500672]}},{"type":"Feature","properties":{"nombre":"Cristian Moraga","N�":"2","Comuna":"Villarrica","Provincia":"Cautin","Nombre Pro":"Cristian Moraga","Contacto":"965457179","Coordenada":"-39 12 23,84","UTM X":"735330,176","UTM Y":"5656681,168","Obtenido E":"2023-2024","layer_kind":"water_sources","tipo":"Fuente de agua","estado":"Disponible"},"geometry":{"type":"Point","coordinates":[-72.27454069988381,-39.20728160776544]}},{"type":"Feature","properties":{"nombre":"Mario Ardiles","N�":"3","Comuna":"Villarrica","Provincia":"Cautin","Nombre Pro":"Mario Ardiles","Contacto":"971359662","Coordenada":"-39 12 22,01","UTM X":"735542,745","UTM Y":"5656731,246","Obtenido E":"2023-2024","layer_kind":"water_sources","tipo":"Fuente de agua","estado":"Disponible"},"geometry":{"type":"Point","coordinates":[-72.27209890393992,-39.20677326475592]}},{"type":"Feature","properties":{"nombre":"Juan Carlos Lagos","N�":"4","Comuna":"Villarrica","Provincia":"Cautin","Nombre Pro":"Juan Carlos Lagos","Contacto":"934027430","Coordenada":"-39 12 18,60","UTM X":"735711,205","UTM Y":"5656831,412","Obtenido E":"2023-2024","layer_kind":"water_sources","tipo":"Fuente de agua","estado":"Disponible"},"geometry":{"type":"Point","coordinates":[-72.27018490653013,-39.20582600734402]}},{"type":"Feature","properties":{"nombre":"Manuel Ojeda","N�":"5","Comuna":"Villarrica","Provincia":"Cautin","Nombre Pro":"Manuel Ojeda","Contacto":"996494694","Coordenada":"-39 12 31,07","UTM X":"736221,379","UTM Y":"5656431,164","Obtenido E":"2023-2024","layer_kind":"water_sources","tipo":"Fuente de agua","estado":"Disponible"},"geometry":{"type":"Point","coordinates":[-72.26414290376759,-39.20928998770082]}},{"type":"Feature","properties":{"nombre":"Marcela Mu�oz","N�":"6","Comuna":"Villarrica","Provincia":"Cautin","Nombre Pro":"Marcela Mu�oz","Contacto":"989134906","Coordenada":"-39 12 28","UTM X":"735539,342","UTM Y":"5656546,484","Obtenido E":"2023-2024","layer_kind":"water_sources","tipo":"Fuente de agua","estado":"Disponible"},"geometry":{"type":"Point","coordinates":[-72.27207389218563,-39.20843719300383]}},{"type":"Feature","properties":{"nombre":"Rene Gallardo","N�":"7","Comuna":"Nueva Imperial","Provincia":"Cautin","Nombre Pro":"Rene Gallardo","Contacto":"941878270","Coordenada":"-38 39 28","UTM X":"683433,695","UTM Y":"5719018,868","Obtenido E":"2023-2024","layer_kind":"water_sources","tipo":"Fuente de agua","estado":"Disponible"},"geometry":{"type":"Point","coordinates":[-72.89183090617314,-38.65842293475869]}},{"type":"Feature","properties":{"nombre":"Oscar Alarcon","N�":"8","Comuna":"Cholchol","Provincia":"Cautin","Nombre Pro":"Oscar Alarcon","Contacto":"994438395","Coordenada":"-38 38 23","UTM X":"685003,072","UTM Y":"5720987,59","Obtenido E":"2023-2024","layer_kind":"water_sources","tipo":"Fuente de agua","estado":"Disponible"},"geometry":{"type":"Point","coordinates":[-72.87433000264733,-38.64036686386527]}},{"type":"Feature","properties":{"nombre":"Rene Coliman","N�":"9","Comuna":"Cholchol","Provincia":"Cautin","Nombre Pro":"Rene Coliman","Contacto":"973777245","Coordenada":"-38 39 01","UTM X":"684298,992","UTM Y":"5719831,752","Obtenido E":"2023-2024","layer_kind":"water_sources","tipo":"Fuente de agua","estado":"Disponible"},"geometry":{"type":"Point","coordinates":[-72.88210816806841,-38.65092271448341]}},{"type":"Feature","properties":{"nombre":"Galvarino Gallardo","N�":"10","Comuna":"Cholchol","Provincia":"Cautin","Nombre Pro":"Galvarino Gallardo","Contacto":"950867572","Coordenada":"-38 38 19","UTM X":"684401,432","UTM Y":"5721124,892","Obtenido E":"2023-2024","layer_kind":"water_sources","tipo":"Fuente de agua","estado":"Disponible"},"geometry":{"type":"Point","coordinates":[-72.88127482264787,-38.63925573174784]}},{"type":"Feature","properties":{"nombre":"Agricola Alto Traiguen","N�":"11","Comuna":"Traigu�n","Provincia":"Malleco","Nombre Pro":"Agricola Alto Traiguen","Contacto":"932657247","Coordenada":"-38 20 34,15","UTM X":"700637,119","UTM Y":"5753582,227","Obtenido E":"2023-2024","layer_kind":"water_sources","tipo":"Fuente de agua","estado":"Disponible"},"geometry":{"type":"Point","coordinates":[-72.7041631436336,-38.34345578972881]}},{"type":"Feature","properties":{"nombre":"Doris Sanhueza","N�":"12","Comuna":"Renaico","Provincia":"Malleco","Nombre Pro":"Doris Sanhueza","Contacto":"992928060","Coordenada":"-37 42 13,89","UTM X":"707342,943","UTM Y":"5824369,375","Obtenido E":"2023-2024","layer_kind":"water_sources","tipo":"Fuente de agua","estado":"Disponible"},"geometry":{"type":"Point","coordinates":[-72.64796707198569,-37.70447743062031]}},{"type":"Feature","properties":{"nombre":"Alejandro Castillo","N�":"13","Comuna":"Angol","Provincia":"Malleco","Nombre Pro":"Alejandro Castillo","Contacto":"998895367","Coordenada":"-37 48 54,04","UTM X":"709042,962","UTM Y":"5811983,427","Obtenido E":"2023-2024","layer_kind":"water_sources","tipo":"Fuente de agua","estado":"Disponible"},"geometry":{"type":"Point","coordinates":[-72.62513229450296,-37.81563315073862]}},{"type":"Feature","properties":{"nombre":"Alejandro Castillo","N�":"14","Comuna":"Angol","Provincia":"Malleco","Nombre Pro":"Alejandro Castillo","Contacto":"998895367","Coordenada":"-37 45 10,64","UTM X":"706343,473","UTM Y":"5818942,523","Obtenido E":"2023-2024","layer_kind":"water_sources","tipo":"Fuente de agua","estado":"Disponible"},"geometry":{"type":"Point","coordinates":[-72.65775637891818,-37.75357597912945]}},{"type":"Feature","properties":{"nombre":"Hector Fernandez","N�":"15","Comuna":"Lautaro","Provincia":"Cautin","Nombre Pro":"Hector Fernandez","Contacto":"958011948","Coordenada":"-38 35 42,46","UTM X":"712144,156","UTM Y":"5725265,393","Obtenido E":"2023-2024","layer_kind":"water_sources","tipo":"Fuente de agua","estado":"Disponible"},"geometry":{"type":"Point","coordinates":[-72.56403007573324,-38.59577079405864]}},{"type":"Feature","properties":{"nombre":"Marcia Jara","N�":"16 (1)","Comuna":"Lautaro","Provincia":"Cautin","Nombre Pro":"Marcia Jara","Contacto":"976482532","Coordenada":"-38 32 59,72","UTM X":"710358,278","UTM Y":"5730333,332","Obtenido E":"2023-2024","layer_kind":"water_sources","tipo":"Fuente de agua","estado":"Disponible"},"geometry":{"type":"Point","coordinates":[-72.58604802572457,-38.55056403635324]}},{"type":"Feature","properties":{"nombre":"Marcia Jara","N�":"16 (2)","Comuna":"Lautaro","Provincia":"Cautin","Nombre Pro":"Marcia Jara","Contacto":"976482532","Coordenada":"-38 33 03,33","UTM X":"710425,565","UTM Y":"5730220,191","Obtenido E":"2023-2024","layer_kind":"water_sources","tipo":"Fuente de agua","estado":"Disponible"},"geometry":{"type":"Point","coordinates":[-72.58524242021639,-38.55156684152112]}},{"type":"Feature","properties":{"nombre":"Marcia Jara","N�":"16 (3)","Comuna":"Lautaro","Provincia":"Cautin","Nombre Pro":"Marcia Jara","Contacto":"976482532","Coordenada":"-38 33 10,73","UTM X":"710401,17","UTM Y":"5729992,533","Obtenido E":"2023-2024","layer_kind":"water_sources","tipo":"Fuente de agua","estado":"Disponible"},"geometry":{"type":"Point","coordinates":[-72.58545353697134,-38.55362245300046]}},{"type":"Feature","properties":{"nombre":"Pablo Cordova","N�":"17","Comuna":"Lautaro","Provincia":"Cautin","Nombre Pro":"Pablo Cordova","Contacto":"942083075","Coordenada":"-38 35 35,96","UTM X":"711355,109","UTM Y":"5725486,829","Obtenido E":"2023-2024","layer_kind":"water_sources","tipo":"Fuente de agua","estado":"Disponible"},"geometry":{"type":"Point","coordinates":[-72.57315001298227,-38.59396520099262]}},{"type":"Feature","properties":{"nombre":"Roxana Inostroza","N�":"18","Comuna":"Traigu�n","Provincia":"Malleco","Nombre Pro":"Roxana Inostroza","Contacto":"979599870","Coordenada":"-38 13 14,80","UTM X":"705744,986","UTM Y":"5767006,82","Obtenido E":"2023-2024","layer_kind":"water_sources","tipo":"Fuente de agua","estado":"Disponible"},"geometry":{"type":"Point","coordinates":[-72.64966327235987,-38.22141075258915]}},{"type":"Feature","properties":{"nombre":"Jose Luis Monje","N�":"19","Comuna":"Traigu�n","Provincia":"Malleco","Nombre Pro":"Jose Luis Monje","Contacto":"9968918517","Coordenada":"-38 09 45,23","UTM X":"701321,8","UTM Y":"5773582,482","Obtenido E":"2023-2024","layer_kind":"water_sources","tipo":"Fuente de agua","estado":"Disponible"},"geometry":{"type":"Point","coordinates":[-72.70201619387174,-38.16319535730859]}},{"type":"Feature","properties":{"nombre":"Jose Luis Monje","N�":"20","Comuna":"Traigu�n","Provincia":"Malleco","Nombre Pro":"Jose Luis Monje","Contacto":"9968918517","Coordenada":"-38 09 53,23","UTM X":"700561,413","UTM Y":"5773354,528","Obtenido E":"2023-2024","layer_kind":"water_sources","tipo":"Fuente de agua","estado":"Disponible"},"geometry":{"type":"Point","coordinates":[-72.7106249794451,-38.16541765413464]}},{"type":"Feature","properties":{"nombre":"Raul Quintas","N�":"21","Comuna":"Galvarino","Provincia":"Cautin","Nombre Pro":"Raul Quintas","Contacto":"996430345","Coordenada":"-38 26 28,19","UTM X":"690913,544","UTM Y":"5742897,672","Obtenido E":"2023-2024","layer_kind":"water_sources","tipo":"Fuente de agua","estado":"Disponible"},"geometry":{"type":"Point","coordinates":[-72.81245208033785,-38.44180304302662]}},{"type":"Feature","properties":{"nombre":"Jose Figueroa","N�":"22","Comuna":"Temuco","Provincia":"Cautin","Nombre Pro":"Jose Figueroa","Contacto":"-","Coordenada":"-38 39 32,09","UTM X":"708543,974","UTM Y":"5718275,757","Obtenido E":"2023-2024","layer_kind":"water_sources","tipo":"Fuente de agua","estado":"Disponible"},"geometry":{"type":"Point","coordinates":[-72.60324036603812,-38.65955869701033]}},{"type":"Feature","properties":{"nombre":"Jose Figueroa","N�":"23","Comuna":"Temuco","Provincia":"Cautin","Nombre Pro":"Jose Figueroa","Contacto":"-","Coordenada":"-38 39 31,36","UTM X":"708407,495","UTM Y":"5718301,845","Obtenido E":"2023-2024","layer_kind":"water_sources","tipo":"Fuente de agua","estado":"Disponible"},"geometry":{"type":"Point","coordinates":[-72.60481545051213,-38.65935592133225]}},{"type":"Feature","properties":{"nombre":"Jose Figueroa","N�":"24","Comuna":"Temuco","Provincia":"Cautin","Nombre Pro":"Jose Figueroa","Contacto":"-","Coordenada":"-38 39 31,75","UTM X":"708422,894","UTM Y":"5718289,411","Obtenido E":"2023-2024","layer_kind":"water_sources","tipo":"Fuente de agua","estado":"Disponible"},"geometry":{"type":"Point","coordinates":[-72.60463488532982,-38.65946425385671]}},{"type":"Feature","properties":{"nombre":"Jose Figueroa","N�":"25","Comuna":"Temuco","Provincia":"Cautin","Nombre Pro":"Jose Figueroa","Contacto":"-","Coordenada":"-38 39 31,84","UTM X":"708390,67","UTM Y":"5718287,476","Obtenido E":"2023-2024","layer_kind":"water_sources","tipo":"Fuente de agua","estado":"Disponible"},"geometry":{"type":"Point","coordinates":[-72.60500434869492,-38.65948925798995]}},{"type":"Feature","properties":{"nombre":"Cristian Rodriguez","N�":"26","Comuna":"Vilc�n","Provincia":"Cautin","Nombre Pro":"Cristian Rodriguez","Contacto":"992595404","Coordenada":"-38 46 11,44","UTM X":"738868,921","UTM Y":"5705101,17","Obtenido E":"2023-2024","layer_kind":"water_sources","tipo":"Fuente de agua","estado":"Disponible"},"geometry":{"type":"Point","coordinates":[-72.25052665854095,-38.77049176409786]}},{"type":"Feature","properties":{"nombre":"Sergio Viabas","N�":"27","Comuna":"Vilc�n","Provincia":"Cautin","Nombre Pro":"Sergio Viabas","Contacto":"989019234","Coordenada":"-38 47 58,76","UTM X":"737978,709","UTM Y":"5701815,955","Obtenido E":"2023-2024","layer_kind":"water_sources","tipo":"Fuente de agua","estado":"Disponible"},"geometry":{"type":"Point","coordinates":[-72.25962985071585,-38.80030370497495]}},{"type":"Feature","properties":{"nombre":"Hernan Taladriz","N�":"28","Comuna":"Vilc�n","Provincia":"Cautin","Nombre Pro":"Hernan Taladriz","Contacto":"994436480","Coordenada":"-38 45 28,77","UTM X":"731383,433","UTM Y":"5706639,459","Obtenido E":"2023-2024","layer_kind":"water_sources","tipo":"Fuente de agua","estado":"Disponible"},"geometry":{"type":"Point","coordinates":[-72.3371146941574,-38.75863879277305]}},{"type":"Feature","properties":{"nombre":"Blas Varas","N�":"29 (1)","Comuna":"Vilc�n","Provincia":"Cautin","Nombre Pro":"Blas Varas","Contacto":"958810945","Coordenada":"-38 43 50,83","UTM X":"729439,27","UTM Y":"5709718,021","Obtenido E":"2023-2024","layer_kind":"water_sources","tipo":"Fuente de agua","estado":"Disponible"},"geometry":{"type":"Point","coordinates":[-72.36048823524226,-38.73143252892868]}},{"type":"Feature","properties":{"nombre":"Blas Varas","N�":"29 (2)","Comuna":"Vilc�n","Provincia":"Cautin","Nombre Pro":"Blas Varas","Contacto":"958810945","Coordenada":"-38 44 04,83","UTM X":"730246,455","UTM Y":"5709262,69","Obtenido E":"2023-2024","layer_kind":"water_sources","tipo":"Fuente de agua","estado":"Disponible"},"geometry":{"type":"Point","coordinates":[-72.35105994836071,-38.73532151088487]}},{"type":"Feature","properties":{"nombre":"Manuel Ulloa","N�":"30","Comuna":"Los Sauces","Provincia":"Malleco","Nombre Pro":"Manuel Ulloa","Contacto":"962169471","Coordenada":"-37 53 48,16","UTM X":"677121,716","UTM Y":"5803662,628","Obtenido E":"2023-2024","layer_kind":"water_sources","tipo":"Fuente de agua","estado":"Disponible"},"geometry":{"type":"Point","coordinates":[-72.98551514993021,-37.8973357886081]}},{"type":"Feature","properties":{"nombre":"Omar Astudillo","N�":"31","Comuna":"Pur�n","Provincia":"Malleco","Nombre Pro":"Omar Astudillo","Contacto":"991366982","Coordenada":"-38 00 09,00","UTM X":"666543,199","UTM Y":"5792140,183","Obtenido E":"2023-2024","layer_kind":"water_sources","tipo":"Fuente de agua","estado":"Disponible"},"geometry":{"type":"Point","coordinates":[-73.10309898886547,-38.00312764634377]}},{"type":"Feature","properties":{"nombre":"Moises Velasco","N�":"32","Comuna":"Perquenco","Provincia":"Cautin","Nombre Pro":"Moises Velasco","Contacto":"996439874","Coordenada":"-38 27 18,62","UTM X":"716533,247","UTM Y":"5740692,536","Obtenido E":"2023-2024","layer_kind":"water_sources","tipo":"Fuente de agua","estado":"Disponible"},"geometry":{"type":"Point","coordinates":[-72.51845294826438,-38.45581135667496]}},{"type":"Feature","properties":{"nombre":"Luis Herdener","N�":"33","Comuna":"Perquenco","Provincia":"Cautin","Nombre Pro":"Luis Herdener","Contacto":"998657106","Coordenada":"-38 27 46,30","UTM X":"723952,813","UTM Y":"5739635,095","Obtenido E":"2023-2024","layer_kind":"water_sources","tipo":"Fuente de agua","estado":"Disponible"},"geometry":{"type":"Point","coordinates":[-72.43316224970181,-38.46350033244501]}},{"type":"Feature","properties":{"nombre":"Rene Caminondo","N�":"34","Comuna":"Perquenco","Provincia":"Cautin","Nombre Pro":"Rene Caminondo","Contacto":"954724858","Coordenada":"-38 28 23,99","UTM X":"719326,029","UTM Y":"5738599,916","Obtenido E":"2023-2024","layer_kind":"water_sources","tipo":"Fuente de agua","estado":"Disponible"},"geometry":{"type":"Point","coordinates":[-72.48582060089043,-38.47397014428596]}},{"type":"Feature","properties":{"nombre":"Eliana Hauri","N�":"35","Comuna":"Perquenco","Provincia":"Cautin","Nombre Pro":"Eliana Hauri","Contacto":"968390356","Coordenada":"-38 28 06,44","UTM X":"724239,939","UTM Y":"5739005,676","Obtenido E":"2023-2024","layer_kind":"water_sources","tipo":"Fuente de agua","estado":"Disponible"},"geometry":{"type":"Point","coordinates":[-72.42967315378571,-38.46909492075708]}},{"type":"Feature","properties":{"nombre":"Andrea Taladniz","N�":"36","Comuna":"Perquenco","Provincia":"Cautin","Nombre Pro":"Andrea Taladniz","Contacto":"996450412","Coordenada":"-38 28 35,84","UTM X":"723540,135","UTM Y":"5738118,071","Obtenido E":"2023-2024","layer_kind":"water_sources","tipo":"Fuente de agua","estado":"Disponible"},"geometry":{"type":"Point","coordinates":[-72.43740410838348,-38.47726182376004]}},{"type":"Feature","properties":{"nombre":"Juan Carlos Nahuelcoi","N�":"37 (1)","Comuna":"Freire","Provincia":"Cautin","Nombre Pro":"Juan Carlos Nahuelcoi","Contacto":"949975671","Coordenada":"-38 58 01,00","UTM X":"699258,291","UTM Y":"5684303,291","Obtenido E":"2023-2024","layer_kind":"water_sources","tipo":"Fuente de agua","estado":"Disponible"},"geometry":{"type":"Point","coordinates":[-72.70005601140447,-38.96759784283235]}},{"type":"Feature","properties":{"nombre":"Juan Carlos Nahuelcoi","N�":"37 (2)","Comuna":"Freire","Provincia":"Cautin","Nombre Pro":"Juan Carlos Nahuelcoi","Contacto":"949975671","Coordenada":"-38 58 14,54","UTM X":"699184,688","UTM Y":"5683887,429","Obtenido E":"2023-2024","layer_kind":"water_sources","tipo":"Fuente de agua","estado":"Disponible"},"geometry":{"type":"Point","coordinates":[-72.70078382216468,-38.97135905545567]}},{"type":"Feature","properties":{"nombre":"Juan Carlos Nahuelcoi","N�":"37 (3)","Comuna":"Freire","Provincia":"Cautin","Nombre Pro":"Juan Carlos Nahuelcoi","Contacto":"949975671","Coordenada":"-38 58 16,90","UTM X":"699178,518","UTM Y":"5683814,777","Obtenido E":"2023-2024","layer_kind":"water_sources","tipo":"Fuente de agua","estado":"Disponible"},"geometry":{"type":"Point","coordinates":[-72.70083382894894,-38.97201462629619]}},{"type":"Feature","properties":{"nombre":"Erna Valdebenito","N�":"38","Comuna":"Teodoro Schmidt","Provincia":"Cautin","Nombre Pro":"Erna Valdebenito","Contacto":"990118004","Coordenada":"-38 57 14,42","UTM X":"681976,199","UTM Y":"5686157,666","Obtenido E":"2023-2024","layer_kind":"water_sources","tipo":"Fuente de agua","estado":"Disponible"},"geometry":{"type":"Point","coordinates":[-72.89989741355147,-38.95465885550487]}},{"type":"Feature","properties":{"nombre":"Leonardo Fonseca","N�":"39 (1)","Comuna":"Pitrufqu�n","Provincia":"Cautin","Nombre Pro":"Leonardo Fonseca","Contacto":"994433199","Coordenada":"-39 02 25,59","UTM X":"703936,554","UTM Y":"5676020,539","Obtenido E":"2023-2024","layer_kind":"water_sources","tipo":"Fuente de agua","estado":"Disponible"},"geometry":{"type":"Point","coordinates":[-72.64362501342077,-39.04109701073281]}},{"type":"Feature","properties":{"nombre":"Leonardo Fonseca","N�":"39 (2)","Comuna":"Pitrufqu�n","Provincia":"Cautin","Nombre Pro":"Leonardo Fonseca","Contacto":"994433199","Coordenada":"-39 02 25,94","UTM X":"704167,586","UTM Y":"5676003,749","Obtenido E":"2023-2024","layer_kind":"water_sources","tipo":"Fuente de agua","estado":"Disponible"},"geometry":{"type":"Point","coordinates":[-72.64095264472255,-39.0411942355853]}},{"type":"Feature","properties":{"nombre":"Leonardo Fonseca","N�":"39 (3)","Comuna":"Pitrufqu�n","Provincia":"Cautin","Nombre Pro":"Leonardo Fonseca","Contacto":"994433199","Coordenada":"-39 02 35,19","UTM X":"704236,886","UTM Y":"5675716,564","Obtenido E":"2023-2024","layer_kind":"water_sources","tipo":"Fuente de agua","estado":"Disponible"},"geometry":{"type":"Point","coordinates":[-72.64006648175575,-39.04376374954231]}},{"type":"Feature","properties":{"nombre":"Leonardo Fonseca","N�":"39 (4)","Comuna":"Pitrufqu�n","Provincia":"Cautin","Nombre Pro":"Leonardo Fonseca","Contacto":"994433199","Coordenada":"-39 02 22,46","UTM X":"704237,936","UTM Y":"5676109,291","Obtenido E":"2023-2024","layer_kind":"water_sources","tipo":"Fuente de agua","estado":"Disponible"},"geometry":{"type":"Point","coordinates":[-72.64017206033542,-39.04022753512893]}},{"type":"Feature","properties":{"nombre":"Ramon Cifuentes","N�":"40","Comuna":"Pitrufqu�n","Provincia":"Cautin","Nombre Pro":"Ramon Cifuentes","Contacto":"972114147","Coordenada":"-39 02 24,89","UTM X":"704472,835","UTM Y":"5676028,218","Obtenido E":"2023-2024","layer_kind":"water_sources","tipo":"Fuente de agua","estado":"Disponible"},"geometry":{"type":"Point","coordinates":[-72.63743579198646,-39.040902556327]}},{"type":"Feature","properties":{"nombre":"Nelson Mondaca","N�":"41 (1)","Comuna":"Gorbea","Provincia":"Cautin","Nombre Pro":"Nelson Mondaca","Contacto":"964964496","Coordenada":"-38 06 25,00","UTM X":"705557,98","UTM Y":"5779652,932","Obtenido E":"2023-2024","layer_kind":"water_sources","tipo":"Fuente de agua","estado":"Disponible"},"geometry":{"type":"Point","coordinates":[-72.65544993677454,-38.10757435531629]}},{"type":"Feature","properties":{"nombre":"Nelson Mondaca","N�":"41 (2)","Comuna":"Gorbea","Provincia":"Cautin","Nombre Pro":"Nelson Mondaca","Contacto":"964964496","Coordenada":"-39 06 30,91","UTM X":"702085,282","UTM Y":"5668499,627","Obtenido E":"2023-2024","layer_kind":"water_sources","tipo":"Fuente de agua","estado":"Disponible"},"geometry":{"type":"Point","coordinates":[-72.6627647927142,-39.10924336687651]}},{"type":"Feature","properties":{"nombre":"Mauricio Valdebenito","N�":"42","Comuna":"Teodoro Schmidt","Provincia":"Cautin","Nombre Pro":"Mauricio Valdebenito","Contacto":"989592302","Coordenada":"-38 56 08,58","UTM X":"683008,561","UTM Y":"5688164,757","Obtenido E":"2023-2024","layer_kind":"water_sources","tipo":"Fuente de agua","estado":"Disponible"},"geometry":{"type":"Point","coordinates":[-72.88852738592881,-38.93636944319402]}},{"type":"Feature","properties":{"nombre":"Mauricio Ramirez","N�":"43","Comuna":"Los Sauces","Provincia":"Malleco","Nombre Pro":"Mauricio Ramirez","Contacto":"993233789","Coordenada":"-37 58 35,68","UTM X":"679427,242","UTM Y":"5794745,335","Obtenido E":"2023-2024","layer_kind":"water_sources","tipo":"Fuente de agua","estado":"Disponible"},"geometry":{"type":"Point","coordinates":[-72.9570857123764,-37.97720456403199]}},{"type":"Feature","properties":{"nombre":"Maria Ancalao","N�":"44","Comuna":"Pur�n","Provincia":"Malleco","Nombre Pro":"Maria Ancalao","Contacto":"920234700","Coordenada":"-38 04 12,00","UTM X":"675882,74","UTM Y":"5784450,294","Obtenido E":"2023-2024","layer_kind":"water_sources","tipo":"Fuente de agua","estado":"Disponible"},"geometry":{"type":"Point","coordinates":[-72.99489310192935,-38.07062933328204]}},{"type":"Feature","properties":{"nombre":"Gabriel Tramolao","N�":"45","Comuna":"Pur�n","Provincia":"Malleco","Nombre Pro":"Gabriel Tramolao","Contacto":"961640740","Coordenada":"-38 04 18,28","UTM X":"676273,827","UTM Y":"5784248,165","Obtenido E":"2023-2024","layer_kind":"water_sources","tipo":"Fuente de agua","estado":"Disponible"},"geometry":{"type":"Point","coordinates":[-72.99038730728641,-38.07237382416387]}},{"type":"Feature","properties":{"nombre":"Carlos Melin","N�":"46","Comuna":"Pur�n","Provincia":"Malleco","Nombre Pro":"Carlos Melin","Contacto":"974434175","Coordenada":"-38 04 26,00","UTM X":"676046,195","UTM Y":"5784015,001","Obtenido E":"2023-2024","layer_kind":"water_sources","tipo":"Fuente de agua","estado":"Disponible"},"geometry":{"type":"Point","coordinates":[-72.99292354733312,-38.07451832521797]}},{"type":"Feature","properties":{"nombre":"Acuerdo N°1","ID Acuerdo de Colaboración":"Acuerdo N°1","Provincia":"Cautín","Comuna":"Villarrica","layer_kind":"water_sources","tipo":"Fuente de agua","estado":"Disponible"},"geometry":{"type":"Point","coordinates":[-72.27549722222221,-39.20487222222221]}},{"type":"Feature","properties":{"nombre":"Acuerdo N°2","ID Acuerdo de Colaboración":"Acuerdo N°2","Provincia":"Cautín","Comuna":"Villarrica","layer_kind":"water_sources","tipo":"Fuente de agua","estado":"Disponible"},"geometry":{"type":"Point","coordinates":[-72.27468888888882,-39.20662222222222]}},{"type":"Feature","properties":{"nombre":"Acuerdo N°3","ID Acuerdo de Colaboración":"Acuerdo N°3","Provincia":"Cautín","Comuna":"Villarrica","layer_kind":"water_sources","tipo":"Fuente de agua","estado":"Disponible"},"geometry":{"type":"Point","coordinates":[-72.27224722222218,-39.20611388888892]}},{"type":"Feature","properties":{"nombre":"Acuerdo N°4","ID Acuerdo de Colaboración":"Acuerdo N°4","Provincia":"Cautín","Comuna":"Villarrica","layer_kind":"water_sources","tipo":"Fuente de agua","estado":"Disponible"},"geometry":{"type":"Point","coordinates":[-72.27033333333321,-39.20516666666668]}},{"type":"Feature","properties":{"nombre":"Acuerdo N°5","ID Acuerdo de Colaboración":"Acuerdo N°5","Provincia":"Cautín","Comuna":"Villarrica","layer_kind":"water_sources","tipo":"Fuente de agua","estado":"Disponible"},"geometry":{"type":"Point","coordinates":[-72.26429166666668,-39.20863055555554]}},{"type":"Feature","properties":{"nombre":"Acuerdo N°6","ID Acuerdo de Colaboración":"Acuerdo N°6","Provincia":"Cautín","Comuna":"Villarrica","layer_kind":"water_sources","tipo":"Fuente de agua","estado":"Disponible"},"geometry":{"type":"Point","coordinates":[-72.27222222222224,-39.20777777777772]}},{"type":"Feature","properties":{"nombre":"Acuerdo N°7","ID Acuerdo de Colaboración":"Acuerdo N°7","Provincia":"Cautín","Comuna":"Nueva Imperial","layer_kind":"water_sources","tipo":"Fuente de agua","estado":"Disponible"},"geometry":{"type":"Point","coordinates":[-72.89194444444445,-38.65777777777777]}},{"type":"Feature","properties":{"nombre":"Acuerdo N°8","ID Acuerdo de Colaboración":"Acuerdo N°8","Provincia":"Cautín","Comuna":"Cholchol","layer_kind":"water_sources","tipo":"Fuente de agua","estado":"Disponible"},"geometry":{"type":"Point","coordinates":[-72.87458257478164,-38.63998254731843]}},{"type":"Feature","properties":{"nombre":"Acuerdo N°9","ID Acuerdo de Colaboración":"Acuerdo N°9","Provincia":"Cautín","Comuna":"Cholchol","layer_kind":"water_sources","tipo":"Fuente de agua","estado":"Disponible"},"geometry":{"type":"Point","coordinates":[-72.88222222222214,-38.65027777777777]}},{"type":"Feature","properties":{"nombre":"Acuerdo N°10","ID Acuerdo de Colaboración":"Acuerdo N°10","Provincia":"Cautín","Comuna":"Cholchol","layer_kind":"water_sources","tipo":"Fuente de agua","estado":"Disponible"},"geometry":{"type":"Point","coordinates":[-72.88138888888886,-38.63861111111106]}},{"type":"Feature","properties":{"nombre":"Acuerdo N°11","ID Acuerdo de Colaboración":"Acuerdo N°11","Provincia":"Malleco","Comuna":"Traiguén","layer_kind":"water_sources","tipo":"Fuente de agua","estado":"Disponible"},"geometry":{"type":"Point","coordinates":[-72.70438709123357,-38.3428700187236]}},{"type":"Feature","properties":{"nombre":"Acuerdo N°12","ID Acuerdo de Colaboración":"Acuerdo N°12","Provincia":"Malleco","Comuna":"Renaico","layer_kind":"water_sources","tipo":"Fuente de agua","estado":"Disponible"},"geometry":{"type":"Point","coordinates":[-72.64809265770452,-37.70385947699106]}},{"type":"Feature","properties":{"nombre":"Acuerdo N°13","ID Acuerdo de Colaboración":"Acuerdo N°13","Provincia":"Malleco","Comuna":"Angol","layer_kind":"water_sources","tipo":"Fuente de agua","estado":"Disponible"},"geometry":{"type":"Point","coordinates":[-72.62525748508392,-37.81501231205965]}},{"type":"Feature","properties":{"nombre":"Acuerdo N°14","ID Acuerdo de Colaboración":"Acuerdo N°14","Provincia":"Malleco","Comuna":"Angol","layer_kind":"water_sources","tipo":"Fuente de agua","estado":"Disponible"},"geometry":{"type":"Point","coordinates":[-72.65787954854335,-37.7529556876778]}},{"type":"Feature","properties":{"nombre":"Acuerdo N°15","ID Acuerdo de Colaboración":"Acuerdo N°15","Provincia":"Cautín","Comuna":"Lautaro","layer_kind":"water_sources","tipo":"Fuente de agua","estado":"Disponible"},"geometry":{"type":"Point","coordinates":[-72.56416087503823,-38.59512843827508]}},{"type":"Feature","properties":{"nombre":"Acuerdo N°16 (1)","ID Acuerdo de Colaboración":"Acuerdo N°16 (1)","Provincia":"Cautín","Comuna":"Lautaro","layer_kind":"water_sources","tipo":"Fuente de agua","estado":"Disponible"},"geometry":{"type":"Point","coordinates":[-72.58617650326823,-38.54992194709246]}},{"type":"Feature","properties":{"nombre":"Acuerdo N°16 (2)","ID Acuerdo de Colaboración":"Acuerdo N°16 (2)","Provincia":"Cautín","Comuna":"Lautaro","layer_kind":"water_sources","tipo":"Fuente de agua","estado":"Disponible"},"geometry":{"type":"Point","coordinates":[-72.58537254763024,-38.55092397888325]}},{"type":"Feature","properties":{"nombre":"Acuerdo N°16 (3)","ID Acuerdo de Colaboración":"Acuerdo N°16 (3)","Provincia":"Cautín","Comuna":"Lautaro","layer_kind":"water_sources","tipo":"Fuente de agua","estado":"Disponible"},"geometry":{"type":"Point","coordinates":[-72.58558211497461,-38.5529802714774]}},{"type":"Feature","properties":{"nombre":"Acuerdo N°17","ID Acuerdo de Colaboración":"Acuerdo N°17","Provincia":"Cautín","Comuna":"Lautaro","layer_kind":"water_sources","tipo":"Fuente de agua","estado":"Disponible"},"geometry":{"type":"Point","coordinates":[-72.57328014020356,-38.59332101710959]}},{"type":"Feature","properties":{"nombre":"Acuerdo N°18","ID Acuerdo de Colaboración":"Acuerdo N°18","Provincia":"Malleco","Comuna":"Traiguén","layer_kind":"water_sources","tipo":"Fuente de agua","estado":"Disponible"},"geometry":{"type":"Point","coordinates":[-72.64978781681219,-38.2207787175775]}},{"type":"Feature","properties":{"nombre":"Acuerdo N°19","ID Acuerdo de Colaboración":"Acuerdo N°19","Provincia":"Malleco","Comuna":"Traiguén","layer_kind":"water_sources","tipo":"Fuente de agua","estado":"Disponible"},"geometry":{"type":"Point","coordinates":[-72.70213840539293,-38.16256363847884]}},{"type":"Feature","properties":{"nombre":"Acuerdo N°20","ID Acuerdo de Colaboración":"Acuerdo N°20","Provincia":"Malleco","Comuna":"Traiguén","layer_kind":"water_sources","tipo":"Fuente de agua","estado":"Disponible"},"geometry":{"type":"Point","coordinates":[-72.71074772391643,-38.16478548803161]}},{"type":"Feature","properties":{"nombre":"Acuerdo N°21","ID Acuerdo de Colaboración":"Acuerdo N°21","Provincia":"Cautín","Comuna":"Galvarino","layer_kind":"water_sources","tipo":"Fuente de agua","estado":"Disponible"},"geometry":{"type":"Point","coordinates":[-72.81256832184113,-38.44116385248333]}},{"type":"Feature","properties":{"nombre":"Acuerdo N°22","ID Acuerdo de Colaboración":"Acuerdo N°22","Provincia":"Cautín","Comuna":"Temuco","layer_kind":"water_sources","tipo":"Fuente de agua","estado":"Disponible"},"geometry":{"type":"Point","coordinates":[-72.60337008613988,-38.65891369345741]}},{"type":"Feature","properties":{"nombre":"Acuerdo N°23","ID Acuerdo de Colaboración":"Acuerdo N°23","Provincia":"Cautín","Comuna":"Temuco","layer_kind":"water_sources","tipo":"Fuente de agua","estado":"Disponible"},"geometry":{"type":"Point","coordinates":[-72.6049455458305,-38.65871096054661]}},{"type":"Feature","properties":{"nombre":"Acuerdo N°24","ID Acuerdo de Colaboración":"Acuerdo N°24","Provincia":"Cautín","Comuna":"Temuco","layer_kind":"water_sources","tipo":"Fuente de agua","estado":"Disponible"},"geometry":{"type":"Point","coordinates":[-72.6047643609387,-38.65881809863583]}},{"type":"Feature","properties":{"nombre":"Acuerdo N°25","ID Acuerdo de Colaboración":"Acuerdo N°25","Provincia":"Cautín","Comuna":"Temuco","layer_kind":"water_sources","tipo":"Fuente de agua","estado":"Disponible"},"geometry":{"type":"Point","coordinates":[-72.60513295352234,-38.65884408215385]}},{"type":"Feature","properties":{"nombre":"Acuerdo N°26","ID Acuerdo de Colaboración":"Acuerdo N°26","Provincia":"Cautín","Comuna":"Vilcún","layer_kind":"water_sources","tipo":"Fuente de agua","estado":"Disponible"},"geometry":{"type":"Point","coordinates":[-72.25067432415575,-38.76984406505515]}},{"type":"Feature","properties":{"nombre":"Acuerdo N°27","ID Acuerdo de Colaboración":"Acuerdo N°27","Provincia":"Cautín","Comuna":"Vilcún","layer_kind":"water_sources","tipo":"Fuente de agua","estado":"Disponible"},"geometry":{"type":"Point","coordinates":[-72.25977726664945,-38.79965453433149]}},{"type":"Feature","properties":{"nombre":"Acuerdo N°28","ID Acuerdo de Colaboración":"Acuerdo N°28","Provincia":"Cautín","Comuna":"Vilcún","layer_kind":"water_sources","tipo":"Fuente de agua","estado":"Disponible"},"geometry":{"type":"Point","coordinates":[-72.3372580451614,-38.75799251083802]}},{"type":"Feature","properties":{"nombre":"Acuerdo N°29 (1)","ID Acuerdo de Colaboración":"Acuerdo N°29 (1)","Provincia":"Cautín","Comuna":"Vilcún","layer_kind":"water_sources","tipo":"Fuente de agua","estado":"Disponible"},"geometry":{"type":"Point","coordinates":[-72.36063028738869,-38.73078629811749]}},{"type":"Feature","properties":{"nombre":"Acuerdo N°29 (2)","ID Acuerdo de Colaboración":"Acuerdo N°29 (2)","Provincia":"Cautín","Comuna":"Vilcún","layer_kind":"water_sources","tipo":"Fuente de agua","estado":"Disponible"},"geometry":{"type":"Point","coordinates":[-72.35120264104553,-38.73467366616026]}},{"type":"Feature","properties":{"nombre":"Acuerdo N°30","ID Acuerdo de Colaboración":"Acuerdo N°30","Provincia":"Malleco","Comuna":"Los Sauces","layer_kind":"water_sources","tipo":"Fuente de agua","estado":"Disponible"},"geometry":{"type":"Point","coordinates":[-72.985622,-37.89671]}},{"type":"Feature","properties":{"nombre":"Acuerdo N°31","ID Acuerdo de Colaboración":"Acuerdo N°31","Provincia":"Malleco","Comuna":"Purén","layer_kind":"water_sources","tipo":"Fuente de agua","estado":"Disponible"},"geometry":{"type":"Point","coordinates":[-73.17555555555556,-38.00694444444444]}},{"type":"Feature","properties":{"nombre":"Acuerdo N°32","ID Acuerdo de Colaboración":"Acuerdo N°32","Provincia":"Cautín","Comuna":"Perquenco","layer_kind":"water_sources","tipo":"Fuente de agua","estado":"Disponible"},"geometry":{"type":"Point","coordinates":[-72.5185861111111,-38.45517222222222]}},{"type":"Feature","properties":{"nombre":"Acuerdo N°33","ID Acuerdo de Colaboración":"Acuerdo N°33","Provincia":"Cautín","Comuna":"Perquenco","layer_kind":"water_sources","tipo":"Fuente de agua","estado":"Disponible"},"geometry":{"type":"Point","coordinates":[-72.43330114301057,-38.46285994058666]}},{"type":"Feature","properties":{"nombre":"Acuerdo N°34","ID Acuerdo de Colaboración":"Acuerdo N°34","Provincia":"Cautín","Comuna":"Perquenco","layer_kind":"water_sources","tipo":"Fuente de agua","estado":"Disponible"},"geometry":{"type":"Point","coordinates":[-72.48595555555556,-38.47333055555556]}},{"type":"Feature","properties":{"nombre":"Acuerdo N°35","ID Acuerdo de Colaboración":"Acuerdo N°35","Provincia":"Cautín","Comuna":"Perquenco","layer_kind":"water_sources","tipo":"Fuente de agua","estado":"Disponible"},"geometry":{"type":"Point","coordinates":[-72.42981111111112,-38.46845555555556]}},{"type":"Feature","properties":{"nombre":"Acuerdo N°36","ID Acuerdo de Colaboración":"Acuerdo N°36","Provincia":"Cautín","Comuna":"Perquenco","layer_kind":"water_sources","tipo":"Fuente de agua","estado":"Disponible"},"geometry":{"type":"Point","coordinates":[-72.43754166666668,-38.47662222222223]}},{"type":"Feature","properties":{"nombre":"Acuerdo N°37 (1)","ID Acuerdo de Colaboración":"Acuerdo N°37 (1)","Provincia":"Cautín","Comuna":"Freire","layer_kind":"water_sources","tipo":"Fuente de agua","estado":"Disponible"},"geometry":{"type":"Point","coordinates":[-72.70018055555556,-38.96694444444444]}},{"type":"Feature","properties":{"nombre":"Acuerdo N°37 (2)","ID Acuerdo de Colaboración":"Acuerdo N°37 (2)","Provincia":"Cautín","Comuna":"Freire","layer_kind":"water_sources","tipo":"Fuente de agua","estado":"Disponible"},"geometry":{"type":"Point","coordinates":[-72.70090716144792,-38.97070572945344]}},{"type":"Feature","properties":{"nombre":"Acuerdo N°37 (3)","ID Acuerdo de Colaboración":"Acuerdo N°37 (3)","Provincia":"Cautín","Comuna":"Freire","layer_kind":"water_sources","tipo":"Fuente de agua","estado":"Disponible"},"geometry":{"type":"Point","coordinates":[-72.70095717585403,-38.97136026968408]}},{"type":"Feature","properties":{"nombre":"Acuerdo N°38","ID Acuerdo de Colaboración":"Acuerdo N°38","Provincia":"Cautín","Comuna":"Teodoro Schmidt","layer_kind":"water_sources","tipo":"Fuente de agua","estado":"Disponible"},"geometry":{"type":"Point","coordinates":[-72.90001111111111,-38.95400555555556]}},{"type":"Feature","properties":{"nombre":"Acuerdo N°39 (1)","ID Acuerdo de Colaboración":"Acuerdo N°39 (1)","Provincia":"Cautín","Comuna":"Pitrufquén","layer_kind":"water_sources","tipo":"Fuente de agua","estado":"Disponible"},"geometry":{"type":"Point","coordinates":[-72.6437538649273,-39.04044293912]}},{"type":"Feature","properties":{"nombre":"Acuerdo N°39 (2)","ID Acuerdo de Colaboración":"Acuerdo N°39 (2)","Provincia":"Cautín","Comuna":"Pitrufquén","layer_kind":"water_sources","tipo":"Fuente de agua","estado":"Disponible"},"geometry":{"type":"Point","coordinates":[-72.64107944500847,-39.04053836130009]}},{"type":"Feature","properties":{"nombre":"Acuerdo N°39 (3)","ID Acuerdo de Colaboración":"Acuerdo N°39 (3)","Provincia":"Cautín","Comuna":"Pitrufquén","layer_kind":"water_sources","tipo":"Fuente de agua","estado":"Disponible"},"geometry":{"type":"Point","coordinates":[-72.64019350851574,-39.04310700082301]}},{"type":"Feature","properties":{"nombre":"Acuerdo N°39 (4)","ID Acuerdo de Colaboración":"Acuerdo N°39 (4)","Provincia":"Cautín","Comuna":"Pitrufquén","layer_kind":"water_sources","tipo":"Fuente de agua","estado":"Disponible"},"geometry":{"type":"Point","coordinates":[-72.64029890165534,-39.03957350296273]}},{"type":"Feature","properties":{"nombre":"Acuerdo N°40","ID Acuerdo de Colaboración":"Acuerdo N°40","Provincia":"Cautín","Comuna":"Pitrufquén","layer_kind":"water_sources","tipo":"Fuente de agua","estado":"Disponible"},"geometry":{"type":"Point","coordinates":[-72.63756388888889,-39.04024722222222]}},{"type":"Feature","properties":{"nombre":"Acuerdo N°41 (1)","ID Acuerdo de Colaboración":"Acuerdo N°41 (1)","Provincia":"Cautín","Comuna":"Gorbea","layer_kind":"water_sources","tipo":"Fuente de agua","estado":"Disponible"},"geometry":{"type":"Point","coordinates":[-72.655575,-39.10694444444444]}},{"type":"Feature","properties":{"nombre":"Acuerdo N°41 (2)","ID Acuerdo de Colaboración":"Acuerdo N°41 (2)","Provincia":"Cautín","Comuna":"Gorbea","layer_kind":"water_sources","tipo":"Fuente de agua","estado":"Disponible"},"geometry":{"type":"Point","coordinates":[-72.66289058744111,-39.10858582893682]}},{"type":"Feature","properties":{"nombre":"Acuerdo N°42","ID Acuerdo de Colaboración":"Acuerdo N°42","Provincia":"Cautín","Comuna":"Teodoro Schmidt","layer_kind":"water_sources","tipo":"Fuente de agua","estado":"Disponible"},"geometry":{"type":"Point","coordinates":[-72.88864166666667,-38.93571666666666]}},{"type":"Feature","properties":{"nombre":"Acuerdo N°43","ID Acuerdo de Colaboración":"Acuerdo N°43","Provincia":"Malleco","Comuna":"Los Sauces","layer_kind":"water_sources","tipo":"Fuente de agua","estado":"Disponible"},"geometry":{"type":"Point","coordinates":[-72.95719444444445,-37.97657777777778]}},{"type":"Feature","properties":{"nombre":"Acuerdo N°44","ID Acuerdo de Colaboración":"Acuerdo N°44","Provincia":"Malleco","Comuna":"Purén","layer_kind":"water_sources","tipo":"Fuente de agua","estado":"Disponible"},"geometry":{"type":"Point","coordinates":[-72.995,-38.07]}},{"type":"Feature","properties":{"nombre":"Acuerdo N°45","ID Acuerdo de Colaboración":"Acuerdo N°45","Provincia":"Malleco","Comuna":"Purén","layer_kind":"water_sources","tipo":"Fuente de agua","estado":"Disponible"},"geometry":{"type":"Point","coordinates":[-72.9904955621726,-38.07174564300949]}},{"type":"Feature","properties":{"nombre":"Acuerdo N°46","ID Acuerdo de Colaboración":"Acuerdo N°46","Provincia":"Malleco","Comuna":"Purén","layer_kind":"water_sources","tipo":"Fuente de agua","estado":"Disponible"},"geometry":{"type":"Point","coordinates":[-72.99303149737578,-38.07388869287843]}},{"type":"Feature","properties":{"Latitud":"-38.4206","Longitud":"-72.2471","Comuna":"Victoria","nombre":"Victoria","layer_kind":"water_sources","tipo":"Fuente de agua","estado":"Disponible"},"geometry":{"type":"GeometryCollection","geometries":[{"type":"Point","coordinates":[-72.24713000000001,-38.42055999999999]},{"type":"Point","coordinates":[-72.24645,-38.42317]},{"type":"Point","coordinates":[-72.24656,-38.41694000000001]},{"type":"Point","coordinates":[-72.07379,-38.41629]},{"type":"Point","coordinates":[-72.30358,-38.45395999999999]},{"type":"Point","coordinates":[-72.35822,-38.37894]},{"type":"Point","coordinates":[-72.22342,-38.38035]},{"type":"Point","coordinates":[-72.531,-38.704]},{"type":"Point","coordinates":[-72.65651,-38.7219]},{"type":"Point","coordinates":[-72.78868,-38.00000000000001]},{"type":"Point","coordinates":[-73.02288,-38.54487]},{"type":"Point","coordinates":[-72.86767,-38.49967000000002]},{"type":"Point","coordinates":[-72.78377,-38.44010000000001]},{"type":"Point","coordinates":[-72.64731999999998,-38.54955999999998]},{"type":"Point","coordinates":[-72.8646,-38.48654999999999]},{"type":"Point","coordinates":[-72.87158000000001,-38.45834]},{"type":"Point","coordinates":[-72.91564,-38.43907999999999]},{"type":"Point","coordinates":[-72.92886,-38.73437000000001]},{"type":"Point","coordinates":[-72.90286000000002,-38.73871]},{"type":"Point","coordinates":[-72.92532999999999,-38.72161999999999]},{"type":"Point","coordinates":[-72.92843000000002,-38.72549000000001]},{"type":"Point","coordinates":[-72.90764,-38.73841999999998]},{"type":"Point","coordinates":[-72.86516,-38.75131]},{"type":"Point","coordinates":[-72.87422,-38.74967000000002]},{"type":"Point","coordinates":[-72.91017,-38.74333000000002]},{"type":"Point","coordinates":[-73.09075,-38.69519]},{"type":"Point","coordinates":[-72.73139,-37.84526]},{"type":"Point","coordinates":[-72.73049,-37.84586999999999]},{"type":"Point","coordinates":[-72.68226,-37.77573999999998]},{"type":"Point","coordinates":[-72.64764999999998,-37.80809999999999]},{"type":"Point","coordinates":[-72.67959000000002,-37.87207]},{"type":"Point","coordinates":[-72.60659,-37.86410000000001]},{"type":"Point","coordinates":[-72.70695999999998,-37.87463999999999]},{"type":"Point","coordinates":[-72.66525999999999,-37.82850999999999]},{"type":"Point","coordinates":[-72.70216000000002,-37.87953999999998]},{"type":"Point","coordinates":[-72.70066999999999,-37.76321000000002]},{"type":"Point","coordinates":[-72.69876,-37.86540999999999]},{"type":"Point","coordinates":[-73.16139,-39.14943999999999]},{"type":"Point","coordinates":[-73.16193999999999,-39.22471999999999]},{"type":"Point","coordinates":[-73.10595000000002,-39.15855999999999]},{"type":"Point","coordinates":[-73.11234,-39.15878000000001]},{"type":"Point","coordinates":[-72.68598,-39.09950000000001]},{"type":"Point","coordinates":[-72.67386,-39.12069999999999]},{"type":"Point","coordinates":[-72.20821,-39.22005999999999]},{"type":"Point","coordinates":[-72.26954,-39.24770999999999]},{"type":"Point","coordinates":[-72.30405,-39.22151]},{"type":"Point","coordinates":[-72.10835,-39.38214999999999]},{"type":"Point","coordinates":[-71.57352,-39.36207000000001]},{"type":"Point","coordinates":[-72.51073,-39.36563]},{"type":"Point","coordinates":[-72.38301,-38.37872999999999]}]}},{"type":"Feature","properties":{"nombre":"FA TRANQUE AGRICOLA TRAIGUEN","layer_kind":"water_sources","tipo":"Fuente de agua","estado":"Disponible"},"geometry":{"type":"Point","coordinates":[-72.7043965471183,-38.34292570197714]}},{"type":"Feature","properties":{"nombre":"FA TRANQUE PERQUENCO","layer_kind":"water_sources","tipo":"Fuente de agua","estado":"Disponible"},"geometry":{"type":"Point","coordinates":[-72.46106453249722,-38.44381222657408]}},