{"type":"FeatureCollection","name":"recursos_de_deteccion_2024_2025","source_file":"Recursos de detección 2024-2025.kml","layer_kind":"towers","converted_at":"2026-05-15T13:48:27","features":[{"type":"Feature","properties":{"Latitud_1":"-38.08459167","DETALLES":"38 Km E Ercilla","estado":"Operativa","HORARIO":"24 Horas","Longitud_1":"-71.93520833","PROVINCIA":"Malleco","codigo":"Jauja","EMPRESA":"CMPC","layer_kind":"towers","LONGITUD":"71°56'6.75''O","ESTRUCTURA":"Torre de detección / Cámara","LATITUD":"38°05'4.53''S","nombre":"Jauja","COMUNA":"Collipulli"},"geometry":{"type":"Point","coordinates":[-71.93520833,-38.08459167]}},{"type":"Feature","properties":{"Latitud_1":"-37.828675","DETALLES":"4 km al S/W de Mininco","estado":"Operativa","HORARIO":"24 Horas","Longitud_1":"-72.48668056","PROVINCIA":"Malleco","codigo":"Mininco","EMPRESA":"CMPC","layer_kind":"towers","LONGITUD":"72°29'12.05''O","ESTRUCTURA":"Torre de detección / Cámara","LATITUD":"37°49'43.23''S","nombre":"Mininco","COMUNA":"Angol"},"geometry":{"type":"Point","coordinates":[-72.48668056,-37.828675]}},{"type":"Feature","properties":{"Latitud_1":"-38.45305556","DETALLES":"-","estado":"Operativa","HORARIO":"10:00 - 20:00","Longitud_1":"-73.03805556","PROVINCIA":"Malleco","codigo":"Huamaqui","EMPRESA":"CONAF","layer_kind":"towers","LONGITUD":"73°2'17.00''O","ESTRUCTURA":"Torre de detección","LATITUD":"38°27'11.00''S","nombre":"Huamaqui","COMUNA":"Lumaco","poa_region":"Araucanía","poa_comuna":"Cholchol","poa_inicio":"2024-11-01","poa_termino":"2025-04-30","poa_extension":"","poa_personas":"2","poa_nomina":"Jose Gutierrez Avila; Hector Vasquez"},"geometry":{"type":"Point","coordinates":[-73.03805556,-38.45305556]}},{"type":"Feature","properties":{"Latitud_1":"-38.40805556","DETALLES":"-","estado":"Operativa","HORARIO":"10:00 - 20:00","Longitud_1":"-72.87","PROVINCIA":"Cautín","codigo":"Vocolhue","EMPRESA":"CONAF","layer_kind":"towers","LONGITUD":"72°52'12.00''O","ESTRUCTURA":"Torre de detección","LATITUD":"38°24'29.00''S","nombre":"Vocolhue","COMUNA":"Galvarino","poa_region":"Araucanía","poa_comuna":"Galvarino","poa_inicio":"2024-11-01","poa_termino":"2025-04-30","poa_extension":"","poa_personas":"2","poa_nomina":"Juan Quilaleo; Francisco Quilaleo"},"geometry":{"type":"Point","coordinates":[-72.87,-38.40805556]}},{"type":"Feature","properties":{"Latitud_1":"-37.99729444","DETALLES":"-","estado":"Operativa","HORARIO":"10:00 - 20:00","Longitud_1":"-72.959525","PROVINCIA":"Malleco","codigo":"Maicoya","EMPRESA":"CONAF / CMPC","layer_kind":"towers","LONGITUD":"72°57'34.29''O","ESTRUCTURA":"Torre de detección / Cámara","LATITUD":"37°59'50.26''S","nombre":"Maicoya","COMUNA":"Puren","poa_region":"Araucanía","poa_comuna":"Puren","poa_inicio":"2024-11-01","poa_termino":"2025-04-30","poa_extension":"","poa_personas":"2","poa_nomina":"Nicolas Garrido; Victor Garrido"},"geometry":{"type":"Point","coordinates":[-72.959525,-37.99729444]}},{"type":"Feature","properties":{"Latitud_1":"-38.55295833","DETALLES":"-","estado":"Operativa","HORARIO":"-","Longitud_1":"-72.65844167","PROVINCIA":"Cautín","codigo":"La Serena","EMPRESA":"FSP Latam","layer_kind":"towers","LONGITUD":"72°39'30.39''O","ESTRUCTURA":"Torre de detección","LATITUD":"38°33'10.65''S","nombre":"La Serena","COMUNA":"Temuco"},"geometry":{"type":"Point","coordinates":[-72.65844167,-38.55295833]}},{"type":"Feature","properties":{"Latitud_1":"-39.27416667","DETALLES":"16 KM SW Lastarria","estado":"Operativa","HORARIO":"12:00 - 20:00","Longitud_1":"-72.8625","PROVINCIA":"Cautín","codigo":"El Abanico","EMPRESA":"CMPC","layer_kind":"towers","LONGITUD":"72°51'44.88\"O","ESTRUCTURA":"Torre de detección / Cámara","LATITUD":"39°16'26.67\"S","nombre":"El Abanico","COMUNA":"Gorbea"},"geometry":{"type":"Point","coordinates":[-72.8625,-39.27416667]}},{"type":"Feature","properties":{"Latitud_1":"-38.37388889","DETALLES":"24 Km NW Galvarino","estado":"Operativa","HORARIO":"-","Longitud_1":"-73.05694444","PROVINCIA":"Malleco","codigo":"Esquilliuco","EMPRESA":"CMPC","layer_kind":"towers","LONGITUD":"73°03'24.86\"O","ESTRUCTURA":"Torre de detección / Cámara","LATITUD":"38°22'25.92\"S","nombre":"Esquilliuco","COMUNA":"Lumaco"},"geometry":{"type":"Point","coordinates":[-73.05694444,-38.37388889]}},{"type":"Feature","properties":{"Latitud_1":"-38.8897028","DETALLES":"12 Km N Teodoro Sschmidt","estado":"Operativa","HORARIO":"24 Horas","Longitud_1":"-73.1125639","PROVINCIA":"Cautín","codigo":"Molco CMPC","EMPRESA":"CMPC","layer_kind":"towers","LONGITUD":"73°6'45.23''O","ESTRUCTURA":"Torre de detección / Cámara","LATITUD":"38°53'22.93''S","nombre":"Molco CMPC","COMUNA":"Carahue"},"geometry":{"type":"Point","coordinates":[-73.1125639,-38.8897028]}},{"type":"Feature","properties":{"Latitud_1":"-38.2585222","DETALLES":"25 Km S Puren","estado":"Operativa","HORARIO":"24 Horas","Longitud_1":"-73.0555575","PROVINCIA":"Malleco","codigo":"Laureles","EMPRESA":"CMPC","layer_kind":"towers","LONGITUD":"73°03'20.007''O","ESTRUCTURA":"Torre de detección / Cámara","LATITUD":"38°15'30.68''S","nombre":"Laureles","COMUNA":"Lumaco"},"geometry":{"type":"Point","coordinates":[-73.0555575,-38.2585222]}},{"type":"Feature","properties":{"Latitud_1":"-38.7288889","layer_kind":"towers","estado":"Operativa","HORARIO":"10:00 - 20:00","Longitud_1":"-71.5166667","PROVINCIA":"Malleco","codigo":"China Muerta","EMPRESA":"CONAF","LONGITUD":"71°30'60\"O","ESTRUCTURA":"Puesto de Observación","LATITUD":"38°43'44\"S","nombre":"China Muerta","COMUNA":"Lonquimay"},"geometry":{"type":"Point","coordinates":[-71.5166667,-38.7288889]}},{"type":"Feature","properties":{"Latitud_1":"-37.8258333","layer_kind":"towers","estado":"Operativa","HORARIO":"10:00 - 20:00","Longitud_1":"-73.0352778","PROVINCIA":"Malleco","codigo":"Nahuelbuta","EMPRESA":"CONAF","LONGITUD":"73°02'07\"O","ESTRUCTURA":"Puesto de Observación","LATITUD":"37°49'33\"S","nombre":"Nahuelbuta","COMUNA":"Angol"},"geometry":{"type":"Point","coordinates":[-73.0352778,-37.8258333]}},{"type":"Feature","properties":{"Latitud_1":"-38.8688889","layer_kind":"towers","estado":"Operativa","HORARIO":"10:00 - 20:00","Longitud_1":"-71.6613889","PROVINCIA":"Cautín","codigo":"Paile Paile","EMPRESA":"CONAF","LONGITUD":"71°39'41\"O","ESTRUCTURA":"Puesto de Observación","LATITUD":"38°52'08\"S","nombre":"Paile Paile","COMUNA":"Melipeuco"},"geometry":{"type":"Point","coordinates":[-71.6613889,-38.8688889]}},{"type":"Feature","properties":{"Latitud_1":"-38.6694444","layer_kind":"towers","estado":"Operativa","HORARIO":"10:00 - 20:00","Longitud_1":"-71.3347222","PROVINCIA":"Malleco","codigo":"Quinquen","EMPRESA":"CONAF","LONGITUD":"71°20'5.00''O","ESTRUCTURA":"Puesto de Observación","LATITUD":"38°40'10.00''S","nombre":"Quinquen","COMUNA":"Lonquimay"},"geometry":{"type":"Point","coordinates":[-71.3347222,-38.6694444]}},{"type":"Feature","properties":{"Latitud_1":"-39.1369444","layer_kind":"towers","estado":"Operativa","HORARIO":"10:00 - 20:00","Longitud_1":"-71.4883333","PROVINCIA":"Cautín","codigo":"Reigolil","EMPRESA":"CONAF","LONGITUD":"71°29'18\"O","ESTRUCTURA":"Puesto de Observación","LATITUD":"39°08'13\"S","nombre":"Reigolil","COMUNA":"Curarrehue"},"geometry":{"type":"Point","coordinates":[-71.4883333,-39.1369444]}},{"type":"Feature","properties":{"Latitud_1":"-38.5215194","layer_kind":"towers","estado":"Operativa","HORARIO":"10:00 - 20:00","Longitud_1":"-73.2830889","PROVINCIA":"Cautín","codigo":"Trovolhue","EMPRESA":"CONAF","LONGITUD":"73°16'59.12''O","ESTRUCTURA":"Puesto de Observación","LATITUD":"38°31'17.47''S","nombre":"Trovolhue","COMUNA":"Carahue"},"geometry":{"type":"Point","coordinates":[-73.2830889,-38.5215194]}},{"type":"Feature","properties":{"Latitud_1":"-38.6133667","DETALLES":"-","estado":"Operativa","HORARIO":"8:00 - 20:00","Longitud_1":"-72.6433389","PROVINCIA":"Cautín","codigo":"Deille","EMPRESA":"Arauco","layer_kind":"towers","LONGITUD":"72°38'36.02''O","ESTRUCTURA":"Cámara","LATITUD":"38°36'48.12''S","nombre":"Deille","COMUNA":"Temuco"},"geometry":{"type":"Point","coordinates":[-72.6433389,-38.6133667]}},{"type":"Feature","properties":{"Latitud_1":"-39.1435333","DETALLES":"-","estado":"Operativa","HORARIO":"-","Longitud_1":"-72.9290028","PROVINCIA":"Cautín","codigo":"Etruria","EMPRESA":"Arauco","layer_kind":"towers","LONGITUD":"72°55'44.41''O","ESTRUCTURA":"Cámara","LATITUD":"39°08'36.72''S","nombre":"Etruria","COMUNA":"Pitrufquen"},"geometry":{"type":"Point","coordinates":[-72.9290028,-39.1435333]}},{"type":"Feature","properties":{"Latitud_1":"-39.3225972","DETALLES":"-","estado":"Operativa","HORARIO":"8:00 - 20:00","Longitud_1":"-72.6820917","PROVINCIA":"Cautín","codigo":"Lastarria","EMPRESA":"Arauco","layer_kind":"towers","LONGITUD":"72°40'55.53''O","ESTRUCTURA":"Cámara","LATITUD":"39°19'21.35''S","nombre":"Lastarria","COMUNA":"Loncoche"},"geometry":{"type":"Point","coordinates":[-72.6820917,-39.3225972]}},{"type":"Feature","properties":{"Latitud_1":"-37.9590639","DETALLES":"-","estado":"Operativa","HORARIO":"8:00 - 20:00","Longitud_1":"-72.4377972","PROVINCIA":"Malleco","codigo":"Mortandad","EMPRESA":"Arauco","layer_kind":"towers","LONGITUD":"72°26'16.07''O","ESTRUCTURA":"Cámara","LATITUD":"37°57'32.63''S","nombre":"Mortandad","COMUNA":"Collipulli"},"geometry":{"type":"Point","coordinates":[-72.4377972,-37.9590639]}},{"type":"Feature","properties":{"Latitud_1":"-38.5642389","DETALLES":"-","estado":"Operativa","HORARIO":"8:00 - 20:00","Longitud_1":"-72.6198083","PROVINCIA":"Cautín","codigo":"Oyama","EMPRESA":"Arauco","layer_kind":"towers","LONGITUD":"72°37'11.31''O","ESTRUCTURA":"Cámara","LATITUD":"38°33'51.26''S","nombre":"Oyama","COMUNA":"Temuco"},"geometry":{"type":"Point","coordinates":[-72.6198083,-38.5642389]}},{"type":"Feature","properties":{"Latitud_1":"-39.3258333","DETALLES":"-","estado":"Operativa","HORARIO":"8:00 - 20:00","Longitud_1":"-73.1213889","PROVINCIA":"Cautín","codigo":"Puchilco","EMPRESA":"Arauco","layer_kind":"towers","LONGITUD":"73°07'17.00''O","ESTRUCTURA":"Cámara","LATITUD":"39°19'33.00''S","nombre":"Puchilco","COMUNA":"Tolten"},"geometry":{"type":"Point","coordinates":[-73.1213889,-39.3258333]}},{"type":"Feature","properties":{"Latitud_1":"-39.4560611","DETALLES":"-","estado":"Operativa","HORARIO":"-","Longitud_1":"-72.6652944","PROVINCIA":"Cautín","codigo":"Robleria","EMPRESA":"Arauco","layer_kind":"towers","LONGITUD":"72°39'55.06''O","ESTRUCTURA":"Cámara","LATITUD":"39°27'21.82''S","nombre":"Robleria","COMUNA":"Valdivia"},"geometry":{"type":"Point","coordinates":[-72.6652944,-39.4560611]}},{"type":"Feature","properties":{"Latitud_1":"-38.119375","DETALLES":"-","estado":"Operativa","HORARIO":"-","Longitud_1":"-72.3490194","PROVINCIA":"Malleco","codigo":"San Ramón","EMPRESA":"Arauco","layer_kind":"towers","LONGITUD":"72°20'56.47''O","ESTRUCTURA":"Cámara","LATITUD":"38°7'9.75''S","nombre":"San Ramón","COMUNA":"Ercilla"},"geometry":{"type":"Point","coordinates":[-72.3490194,-38.119375]}},{"type":"Feature","properties":{"Latitud_1":"-37.9788222","DETALLES":"-","estado":"Operativa","HORARIO":"-","Longitud_1":"-72.417025","PROVINCIA":"Malleco","codigo":"Santa Amelia","EMPRESA":"Arauco","layer_kind":"towers","LONGITUD":"72°25'1.29''O","ESTRUCTURA":"Cámara","LATITUD":"37°58'43.76''S","nombre":"Santa Amelia","COMUNA":"Collipulli"},"geometry":{"type":"Point","coordinates":[-72.417025,-37.9788222]}},{"type":"Feature","properties":{"Latitud_1":"-37.9210167","DETALLES":"-","estado":"Operativa","HORARIO":"8:00 - 20:00","Longitud_1":"-72.9193333","PROVINCIA":"Malleco","codigo":"Santa Rosalia","EMPRESA":"Arauco","layer_kind":"towers","LONGITUD":"72°55'09.60''O","ESTRUCTURA":"Cámara","LATITUD":"37°55'15.66''S","nombre":"Santa Rosalia","COMUNA":"Los Sauces"},"geometry":{"type":"Point","coordinates":[-72.9193333,-37.9210167]}},{"type":"Feature","properties":{"Latitud_1":"-39.3891111","DETALLES":"-","estado":"Operativa","PROVINCIA":"Arauco","Longitud_1":"-72.8988889","codigo":"Tripallante","EMPRESA":"Arauco","layer_kind":"towers","LONGITUD":"72°53'56.00''O","ESTRUCTURA":"Cámara","LATITUD":"39°23'20.80''S","nombre":"Tripallante","COMUNA":"Loncoche"},"geometry":{"type":"Point","coordinates":[-72.8988889,-39.3891111]}},{"type":"Feature","properties":{"Latitud_1":"-38.163825","DETALLES":"-","estado":"Operativa","HORARIO":"8:00 - 20:00","Longitud_1":"-72.5095583","PROVINCIA":"Malleco","codigo":"El Alba","EMPRESA":"Arauco","layer_kind":"towers","LONGITUD":"72°30'34.41''O","ESTRUCTURA":"Cámara","LATITUD":"38°09'49.77''S","nombre":"El Alba","COMUNA":"Traiguen"},"geometry":{"type":"Point","coordinates":[-72.5095583,-38.163825]}},{"type":"Feature","properties":{"Latitud_1":"-38.0804278","DETALLES":"-","estado":"Operativa","HORARIO":"8:00 - 20:00","Longitud_1":"-72.6005778","PROVINCIA":"Malleco","codigo":"Pillan Mahuida","EMPRESA":"Arauco","layer_kind":"towers","LONGITUD":"72°36'02.08''O","ESTRUCTURA":"Cámara","LATITUD":"38°04'49.54''S","nombre":"Pillan Mahuida","COMUNA":"Los Sauces"},"geometry":{"type":"Point","coordinates":[-72.6005778,-38.0804278]}},{"type":"Feature","properties":{"Latitud_1":"-38.2591056","DETALLES":"-","estado":"Operativa","HORARIO":"-","Longitud_1":"-71.9669917","PROVINCIA":"Malleco","codigo":"Tolhuaca","EMPRESA":"Cambium","layer_kind":"towers","LONGITUD":"71°58'1.17''O","ESTRUCTURA":"Cámara","LATITUD":"38°15'32.78''S","nombre":"Tolhuaca","COMUNA":"Victoria"},"geometry":{"type":"Point","coordinates":[-71.9669917,-38.2591056]}},{"type":"Feature","properties":{"Latitud_1":"-37.8381944","DETALLES":"-","estado":"Operativa","HORARIO":"-","Longitud_1":"-72.3854444","PROVINCIA":"Cautín","codigo":"Esperanza","EMPRESA":"CMPC","layer_kind":"towers","LONGITUD":"72°23'7.6\"O","ESTRUCTURA":"Cámara","LATITUD":"37°50'17.53\"S","nombre":"Esperanza","COMUNA":"Mulchen"},"geometry":{"type":"Point","coordinates":[-72.3854444,-37.8381944]}},{"type":"Feature","properties":{"Latitud_1":"-38.0845917","DETALLES":"38 Km E Ercilla","estado":"Operativa","HORARIO":"24 Horas","Longitud_1":"-71.9352083","PROVINCIA":"Malleco","codigo":"Jauja","EMPRESA":"CMPC","layer_kind":"towers","LONGITUD":"71°56'6.75''O","ESTRUCTURA":"Torre de detección / Cámara","LATITUD":"38°05'4.53''S","nombre":"Jauja","COMUNA":"Collipulli"},"geometry":{"type":"Point","coordinates":[-71.9352083,-38.0845917]}},{"type":"Feature","properties":{"Latitud_1":"-37.7347222","DETALLES":"12 Km NW Angol","estado":"Operativa","HORARIO":"24 Horas","Longitud_1":"-72.8288889","PROVINCIA":"Malleco","codigo":"La Fortuna","EMPRESA":"CMPC","layer_kind":"towers","LONGITUD":"72°49'44.00''O","ESTRUCTURA":"Cámara","LATITUD":"37°44'05.00''S","nombre":"La Fortuna","COMUNA":"Renaico"},"geometry":{"type":"Point","coordinates":[-72.8288889,-37.7347222]}},{"type":"Feature","properties":{"Latitud_1":"-38.2585222","DETALLES":"25 Km S Puren","estado":"Operativa","HORARIO":"24 Horas","Longitud_1":"-73.0555575","PROVINCIA":"Malleco","codigo":"Laureles","EMPRESA":"CMPC","layer_kind":"towers","LONGITUD":"73°03'20.007''O","ESTRUCTURA":"Cámara","LATITUD":"38°15'30.68''S","nombre":"Laureles","COMUNA":"Lumaco"},"geometry":{"type":"Point","coordinates":[-73.0555575,-38.2585222]}},{"type":"Feature","properties":{"Latitud_1":"-37.6933333","DETALLES":"20 Km Nw Angol","estado":"Operativa","HORARIO":"24 Horas","Longitud_1":"-72.9013889","PROVINCIA":"Malleco","codigo":"Los Alpes","EMPRESA":"CMPC","layer_kind":"towers","LONGITUD":"72°54'05.00''O","ESTRUCTURA":"Cámara","LATITUD":"37°41'36.00''S","nombre":"Los Alpes","COMUNA":"Angol"},"geometry":{"type":"Point","coordinates":[-72.9013889,-37.6933333]}},{"type":"Feature","properties":{"Latitud_1":"-37.828675","DETALLES":"4 km al S/W de Mininco","estado":"Operativa","HORARIO":"24 Horas","Longitud_1":"-72.4866806","PROVINCIA":"Malleco","codigo":"Mininco","EMPRESA":"CMPC","layer_kind":"towers","LONGITUD":"72°29'12.05''O","ESTRUCTURA":"Torre de detección / Cámara","LATITUD":"37°49'43.23''S","nombre":"Mininco","COMUNA":"Angol"},"geometry":{"type":"Point","coordinates":[-72.4866806,-37.828675]}},{"type":"Feature","properties":{"Latitud_1":"-38.8897028","DETALLES":"12 Km N Teodoro Sschmidt","estado":"Operativa","HORARIO":"24 Horas","Longitud_1":"-73.1125639","PROVINCIA":"Cautín","codigo":"Molco CMPC","EMPRESA":"CMPC","layer_kind":"towers","LONGITUD":"73°6'45.23''O","ESTRUCTURA":"Torre de detección / Cámara","LATITUD":"38°53'22.93''S","nombre":"Molco CMPC","COMUNA":"Carahue"},"geometry":{"type":"Point","coordinates":[-73.1125639,-38.8897028]}},{"type":"Feature","properties":{"Latitud_1":"-38.7454528","layer_kind":"towers","estado":"Operativa","HORARIO":"-","Longitud_1":"-73.1662472","PROVINCIA":"Cautín","codigo":"Montebello","EMPRESA":"CMPC","LONGITUD":"73°09'58.49''O","ESTRUCTURA":"Cámara","LATITUD":"38°44'43.63''S","nombre":"Montebello","COMUNA":"Carahue"},"geometry":{"type":"Point","coordinates":[-73.1662472,-38.7454528]}},{"type":"Feature","properties":{"Latitud_1":"-38.119375","DETALLES":"3 Km NW Pailahueque","estado":"Operativa","HORARIO":"24 Horas","Longitud_1":"-72.3490194","PROVINCIA":"Malleco","codigo":"Pailahueque / T.San Ramon","EMPRESA":"CMPC","layer_kind":"towers","LONGITUD":"72°20'56.47''O","ESTRUCTURA":"Cámara","LATITUD":"38°07'09.75''S","nombre":"Pailahueque / T.San Ramon","COMUNA":"Ercilla"},"geometry":{"type":"Point","coordinates":[-72.3490194,-38.119375]}},{"type":"Feature","properties":{"Latitud_1":"-37.8267972","DETALLES":"6 Km SW Angol","estado":"Operativa","HORARIO":"24 Horas","Longitud_1":"-72.7598111","PROVINCIA":"Malleco","codigo":"Placeres","EMPRESA":"CMPC","layer_kind":"towers","LONGITUD":"72°45'35.32''O","ESTRUCTURA":"Cámara","LATITUD":"37°49'36.47''S","nombre":"Placeres","COMUNA":"Angol"},"geometry":{"type":"Point","coordinates":[-72.7598111,-37.8267972]}},{"type":"Feature","properties":{"Latitud_1":"-39.1041611","DETALLES":"12 Km Se Teodoro Schmidth","estado":"Operativa","HORARIO":"24 Horas","Longitud_1":"-73.0275111","PROVINCIA":"Cautín","codigo":"Toltén","EMPRESA":"CMPC","layer_kind":"towers","LONGITUD":"73°01'39.04''O","ESTRUCTURA":"Cámara","LATITUD":"39°06'14.98''S","nombre":"Toltén","COMUNA":"Tolten"},"geometry":{"type":"Point","coordinates":[-73.0275111,-39.1041611]}},{"type":"Feature","properties":{"Latitud_1":"-37.9733806","DETALLES":"17,5 km al S de Angol","estado":"Operativa","HORARIO":"24 Horas","Longitud_1":"-72.7052139","PROVINCIA":"Malleco","codigo":"Tronicura","EMPRESA":"CMPC","layer_kind":"towers","LONGITUD":"72°42'18.77''O","ESTRUCTURA":"Cámara","LATITUD":"37°58'24.17''S","nombre":"Tronicura","COMUNA":"Los Sauces"},"geometry":{"type":"Point","coordinates":[-72.7052139,-37.9733806]}},{"type":"Feature","properties":{"Latitud_1":"-38.75","DETALLES":"-","estado":"Operativa","HORARIO":"-","Longitud_1":"-72.6169444","PROVINCIA":"Cautín","codigo":"C-Temuco","EMPRESA":"CONAF","layer_kind":"towers","LONGITUD":"72°37'1\"O","ESTRUCTURA":"Cámara","LATITUD":"38°45'00\"S","nombre":"C-Temuco","COMUNA":"Temuco"},"geometry":{"type":"Point","coordinates":[-72.6169444,-38.75]}},{"type":"Feature","properties":{"Latitud_1":"-38.659375","DETALLES":"-","estado":"Operativa","HORARIO":"-","Longitud_1":"-72.6053278","PROVINCIA":"Cautín","codigo":"Rucamanque","EMPRESA":"CONAF","layer_kind":"towers","LONGITUD":"72°36'19.18''O","ESTRUCTURA":"Cámara","LATITUD":"38°39'33.75''S","nombre":"Rucamanque","COMUNA":"Temuco"},"geometry":{"type":"Point","coordinates":[-72.6053278,-38.659375]}},{"type":"Feature","properties":{"Latitud_1":"-38.2438889","DETALLES":"-","estado":"Operativa","HORARIO":"-","Longitud_1":"-72.3455556","PROVINCIA":"Malleco","codigo":"Victoria","EMPRESA":"CONAF","layer_kind":"towers","LONGITUD":"72°20'44.00''O","ESTRUCTURA":"Cámara","LATITUD":"38°14'38.00''S","nombre":"Victoria","COMUNA":"Victoria"},"geometry":{"type":"Point","coordinates":[-72.3455556,-38.2438889]}},{"type":"Feature","properties":{"Latitud_1":"-37.9972944","DETALLES":"-","estado":"Operativa","HORARIO":"-","Longitud_1":"-72.959525","PROVINCIA":"Malleco","codigo":"Maicoya","EMPRESA":"CONAF / CMPC","layer_kind":"towers","LONGITUD":"72°57'34.29''O","ESTRUCTURA":"Torre de detección / Cámara","LATITUD":"37°59'50.26''S","nombre":"Maicoya","COMUNA":"Puren","poa_region":"Araucanía","poa_comuna":"Puren","poa_inicio":"2024-11-01","poa_termino":"2025-04-30","poa_extension":"","poa_personas":"2","poa_nomina":"Nicolas Garrido; Victor Garrido"},"geometry":{"type":"Point","coordinates":[-72.959525,-37.9972944]}},{"type":"Feature","properties":{"Latitud_1":"-38.4306806","DETALLES":"30 Km SE Tirua","estado":"Operativa","HORARIO":"24 Horas","Longitud_1":"-73.1641083","PROVINCIA":"Cautín","codigo":"Pino Huacho","EMPRESA":"Mininco","layer_kind":"towers","LONGITUD":"73°9'50.79''O","ESTRUCTURA":"Cámara","LATITUD":"38°25'50.45''S","nombre":"Pino Huacho","COMUNA":"Carahue"},"geometry":{"type":"Point","coordinates":[-73.1641083,-38.4306806]}},{"type":"Feature","properties":{"Latitud_1":"-37.9073333","DETALLES":"-","estado":"Operativa","HORARIO":"-","Longitud_1":"-72.5147778","PROVINCIA":"Cautín","codigo":"Totoras","EMPRESA":"Mininco","layer_kind":"towers","LONGITUD":"72°30'53.21\"O","ESTRUCTURA":"Cámara","LATITUD":"37°54'26.4\"S","nombre":"Totoras","COMUNA":"Collipulli"},"geometry":{"type":"Point","coordinates":[-72.5147778,-37.9073333]}},{"type":"Feature","properties":{"Latitud_1":"-37.849041","DETALLES":"-","estado":"Operativa","HORARIO":"11:00 - 19:00","Longitud_1":"-72.716699","PROVINCIA":"Malleco","codigo":"Deuco","EMPRESA":"Arauco","layer_kind":"towers","LONGITUD":"72°43'0.116\"O","ESTRUCTURA":"Cámara","LATITUD":"37°50'56.548\"S","nombre":"Deuco","COMUNA":"Angol"},"geometry":{"type":"Point","coordinates":[-72.716699,-37.849041]}},{"type":"Feature","properties":{"Latitud_1":"-37.7162778","DETALLES":"8 Km NE Angol","estado":"Operativa","HORARIO":"24 Horas","Longitud_1":"-72.6785944","PROVINCIA":"Malleco","codigo":"El Almendro","EMPRESA":"CMPC","layer_kind":"towers","LONGITUD":"72°40'42.94''O","ESTRUCTURA":"Cámara","LATITUD":"37°42'58.60''S","nombre":"El Almendro","COMUNA":"Renaico"},"geometry":{"type":"Point","coordinates":[-72.6785944,-37.7162778]}},{"type":"Feature","properties":{"Latitud_1":"-38.3055556","DETALLES":"18 km al N/E de Tirua","estado":"Operativa","HORARIO":"24 Horas","Longitud_1":"-73.2869444","PROVINCIA":"Arauco","codigo":"Matraquín","EMPRESA":"CMPC","layer_kind":"towers","LONGITUD":"73°17'13\"O","ESTRUCTURA":"Cámara","LATITUD":"38°18'20\"S","nombre":"Matraquín","COMUNA":"Tirúa"},"geometry":{"type":"Point","coordinates":[-73.2869444,-38.3055556]}},{"type":"Feature","properties":{"Latitud_1":"-38.1808333","DETALLES":"6,5 Km SE Lumaco","estado":"Operativa","HORARIO":"24 Horas","Longitud_1":"-72.8313889","PROVINCIA":"Malleco","codigo":"San Javier","EMPRESA":"CMPC","layer_kind":"towers","LONGITUD":"72°49'53\"O","ESTRUCTURA":"Cámara","LATITUD":"38°10'51\"S","nombre":"San Javier","COMUNA":"Lumaco"},"geometry":{"type":"Point","coordinates":[-72.8313889,-38.1808333]}},{"type":"Feature","properties":{"Latitud_1":"-38.1299","DETALLES":"-","estado":"Operativa","HORARIO":"-","Longitud_1":"-71.973","PROVINCIA":"Malleco","codigo":"Baltimore","EMPRESA":"Arauco","layer_kind":"towers","LONGITUD":"71°58'22.80''O","ESTRUCTURA":"Cámara","LATITUD":"38°07'47.64''S","nombre":"Baltimore","COMUNA":"Collipulli"},"geometry":{"type":"Point","coordinates":[-71.973,-38.1299]}},{"type":"Feature","properties":{"Latitud_1":"-37.554","DETALLES":"6 km NE Los Sauces","estado":"Operativa","HORARIO":"12:00 - 20:00","Longitud_1":"-72.4759","codigo":"Moncoles","EMPRESA":"CMPC","layer_kind":"towers","LONGITUD":"72°28'33.24\"O","ESTRUCTURA":"Cámara","LATITUD":"37°33'14.4\"S","nombre":"Moncoles","COMUNA":"Los Angeles"},"geometry":{"type":"Point","coordinates":[-72.4759,-37.554]}},{"type":"Feature","properties":{"Latitud_1":"-38.00111111","DETALLES":"-","estado":"Operativa","HORARIO":"8:00 - 20:00","Longitud_1":"-73.16666667","PROVINCIA":"Malleco","codigo":"Contulmo","EMPRESA":"Arauco","layer_kind":"towers","LONGITUD":"73°10'0\"O","ESTRUCTURA":"Cámara","LATITUD":"38°00'4\"S","nombre":"Contulmo","COMUNA":"Puren"},"geometry":{"type":"Point","coordinates":[-73.16666667,-38.00111111]}},{"type":"Feature","properties":{"Latitud_1":"-39.2741667","DETALLES":"16 KM SW Lastarria","estado":"Operativa","HORARIO":"12:00 - 20:00","Longitud_1":"-72.8625","PROVINCIA":"Cautín","codigo":"El Abanico","EMPRESA":"CMPC","layer_kind":"towers","LONGITUD":"72°51'45\"O","ESTRUCTURA":"Torre de detección / Cámara","LATITUD":"39°16'27\"S","nombre":"El Abanico","COMUNA":"Gorbea"},"geometry":{"type":"Point","coordinates":[-72.8625,-39.2741667]}},{"type":"Feature","properties":{"Latitud_1":"-38.3738889","DETALLES":"24 Km NW Galvarino","estado":"Operativa","HORARIO":"-","Longitud_1":"-73.05694444","PROVINCIA":"Malleco","codigo":"Esquilliuco","EMPRESA":"CMPC","layer_kind":"towers","LONGITUD":"73°3'25\"O","ESTRUCTURA":"Torre de detección / Cámara","LATITUD":"38°22'26\"S","nombre":"Esquilliuco","COMUNA":"Lumaco"},"geometry":{"type":"Point","coordinates":[-73.05694444,-38.3738889]}}]}